,ADDRESS,BLK_NO,BUILDING,LATITUDE,LONGITUDE,LONGTITUDE,POSTAL,ROAD_NAME,SEARCHVAL,X,Y,address
0,754 WOODLANDS CIRCLE HDB-WOODLANDS SINGAPORE 731754,754,HDB-WOODLANDS,1.445289017,103.79392879999999,103.79392879999999,731754,WOODLANDS CIRCLE,HDB-WOODLANDS,23616.53149,47438.27207,754 WOODLANDS CIRCLE
0,481 SEMBAWANG DRIVE HDB-SEMBAWANG SINGAPORE 750481,481,HDB-SEMBAWANG,1.452976284,103.8150941,103.8150941,750481,SEMBAWANG DRIVE,HDB-SEMBAWANG,25971.91031,48288.26161,481 SEMBAWANG DR
0,506 BEDOK NORTH AVENUE 3 KAKI BUKIT VILLE SINGAPORE 460506,506,KAKI BUKIT VILLE,1.332142808,103.93372020000001,103.93372020000001,460506,BEDOK NORTH AVENUE 3,KAKI BUKIT VILLE,39173.66513,34927.32762,506 BEDOK NTH AVE 3
0,688B CHOA CHU KANG DRIVE HDB-CHOA CHU KANG SINGAPORE 682688,688B,HDB-CHOA CHU KANG,1.403435938,103.75033690000001,103.75033690000001,682688,CHOA CHU KANG DRIVE,HDB-CHOA CHU KANG,18765.272559999998,42810.49522,688B CHOA CHU KANG DR
0,674 CHOA CHU KANG CRESCENT HDB-CHOA CHU KANG SINGAPORE 680674,674,HDB-CHOA CHU KANG,1.401553764,103.7469941,103.7469941,680674,CHOA CHU KANG CRESCENT,HDB-CHOA CHU KANG,18393.24968,42602.38721,674 CHOA CHU KANG CRES
0,306A SERANGOON AVENUE 2 SINGAPORE 551306,306A,NIL,1.354351338,103.86673449999999,103.86673449999999,551306,SERANGOON AVENUE 2,306A SERANGOON AVENUE 2 SINGAPORE 551306,31718.808210000003,37382.8313,306 SERANGOON AVE 2
1,306 SERANGOON AVENUE 2 CHUAN VILLAGE SINGAPORE 550306,306,CHUAN VILLAGE,1.354170254,103.86688570000001,103.86688570000001,550306,SERANGOON AVENUE 2,CHUAN VILLAGE,31735.64032,37362.80818,306 SERANGOON AVE 2
2,306 SERANGOON AVENUE 2 MY FIRST SKOOL SINGAPORE 550306,306,MY FIRST SKOOL,1.354170246,103.86688570000001,103.86688570000001,550306,SERANGOON AVENUE 2,MY FIRST SKOOL,31735.6412,37362.807389999994,306 SERANGOON AVE 2
0,673 HOUGANG AVENUE 8 HDB-HOUGANG SINGAPORE 530673,673,HDB-HOUGANG,1.372519645,103.8848302,103.8848302,530673,HOUGANG AVENUE 8,HDB-HOUGANG,33732.60908,39391.826219999995,673 HOUGANG AVE 8
0,525C PASIR RIS STREET 51 COSTA RIS SINGAPORE 513525,525C,COSTA RIS,1.3699604909999998,103.94745209999999,103.94745209999999,513525,PASIR RIS STREET 51,COSTA RIS,40701.68781,39109.08875,525C PASIR RIS ST 51
0,120 PENDING ROAD HDB-BUKIT PANJANG SINGAPORE 670120,120,HDB-BUKIT PANJANG,1.3770546019999998,103.7694441,103.7694441,670120,PENDING ROAD,HDB-BUKIT PANJANG,20891.56046,39893.31226,120 PENDING RD
0,372 BUKIT BATOK STREET 31 HDB-BUKIT BATOK SINGAPORE 650372,372,HDB-BUKIT BATOK,1.358669167,103.7512137,103.7512137,650372,BUKIT BATOK STREET 31,HDB-BUKIT BATOK,18862.68068,37860.404539999996,372 BT BATOK ST 31
0,108 JALAN BUKIT MERAH HDB-BUKIT MERAH SINGAPORE 160108,108,HDB-BUKIT MERAH,1.279220088,103.82544140000002,103.82544140000002,160108,JALAN BUKIT MERAH,HDB-BUKIT MERAH,27123.3315,29075.1795,108 JLN BT MERAH
0,402 FAJAR ROAD HDB-BUKIT PANJANG SINGAPORE 670402,402,HDB-BUKIT PANJANG,1.3803122630000002,103.7680736,103.7680736,670402,FAJAR ROAD,HDB-BUKIT PANJANG,20739.0535,40253.532289999996,402 FAJAR RD
1,402 FAJAR ROAD THE SALVATION ARMY BUKIT PANJANG CHILD CARE CENTRE SINGAPORE 670402,402,THE SALVATION ARMY BUKIT PANJANG CHILD CARE CENTRE,1.380312255,103.7680736,103.7680736,670402,FAJAR ROAD,THE SALVATION ARMY BUKIT PANJANG CHILD CARE CENTRE,20739.05359,40253.53141,402 FAJAR RD
0,142 PETIR ROAD HDB-BUKIT PANJANG SINGAPORE 670142,142,HDB-BUKIT PANJANG,1.376391724,103.7679128,103.7679128,670142,PETIR ROAD,HDB-BUKIT PANJANG,20721.14974,39820.01925,142 PETIR RD
0,145 RIVERVALE DRIVE RIVERVALE PLACE SINGAPORE 540145,145,RIVERVALE PLACE,1.389900449,103.9060703,103.9060703,540145,RIVERVALE DRIVE,RIVERVALE PLACE,36096.323730000004,41313.77018,145 RIVERVALE DR
1,145 RIVERVALE DRIVE LICDO @ RIVERVALE PRESCHOOL TEAM PTE. LTD. SINGAPORE 540145,145,LICDO @ RIVERVALE PRESCHOOL TEAM PTE. LTD.,1.389900441,103.9060703,103.9060703,540145,RIVERVALE DRIVE,LICDO @ RIVERVALE PRESCHOOL TEAM PTE. LTD.,36096.32479,41313.7693,145 RIVERVALE DR
0,914 TAMPINES STREET 91 TAMPINES PALMSVILLE SINGAPORE 520914,914,TAMPINES PALMSVILLE,1.349027771,103.9395684,103.9395684,520914,TAMPINES STREET 91,TAMPINES PALMSVILLE,39824.425839999996,36794.41089,914 TAMPINES ST 91
0,102 HENDERSON CRESCENT HDB-BUKIT MERAH SINGAPORE 150102,102,HDB-BUKIT MERAH,1.290366187,103.8215771,103.8215771,150102,HENDERSON CRESCENT,HDB-BUKIT MERAH,26693.272,30307.6592,102 HENDERSON CRES
0,560 ANG MO KIO AVENUE 10 HDB-ANG MO KIO SINGAPORE 560560,560,HDB-ANG MO KIO,1.3708162680000002,103.85919229999999,103.85919229999999,560560,ANG MO KIO AVENUE 10,HDB-ANG MO KIO,30879.43458,39203.4293,560 ANG MO KIO AVE 10
0,229 LORONG 8 TOA PAYOH TOA PAYOH EIGHT SINGAPORE 310229,229,TOA PAYOH EIGHT,1.3387183120000001,103.8591946,103.8591946,310229,LORONG 8 TOA PAYOH,TOA PAYOH EIGHT,30879.7286,35654.20081,229 LOR 8 TOA PAYOH
0,458 ANG MO KIO AVENUE 10 TECK GHEE GRANDEUR SINGAPORE 560458,458,TECK GHEE GRANDEUR,1.366568152,103.85962679999999,103.85962679999999,560458,ANG MO KIO AVENUE 10,TECK GHEE GRANDEUR,30927.79531,38733.6948,458 ANG MO KIO AVE 10
0,124 GEYLANG EAST AVENUE 1 GEYLANG EAST GROVE SINGAPORE 380124,124,GEYLANG EAST GROVE,1.318388638,103.8866757,103.8866757,380124,GEYLANG EAST AVENUE 1,GEYLANG EAST GROVE,33938.12354,33406.29806,124 GEYLANG EAST AVE 1
0,3A UPPER BOON KENG ROAD KALLANG HEIGHTS SINGAPORE 381003,3A,KALLANG HEIGHTS,1.313828129,103.8723808,103.8723808,381003,UPPER BOON KENG ROAD,KALLANG HEIGHTS,32347.24806,32901.99077,3A UPP BOON KENG RD
0,35 DOVER ROAD SINGAPORE 130035,35,NIL,1.299123981,103.7834245,103.7834245,130035,DOVER ROAD,35 DOVER ROAD SINGAPORE 130035,22447.234419999997,31276.102710000003,35 DOVER RD
0,338 TAMPINES STREET 33 HDB-TAMPINES SINGAPORE 520338,338,HDB-TAMPINES,1.351918352,103.9596468,103.9596468,520338,TAMPINES STREET 33,HDB-TAMPINES,42058.915089999995,37114.14413,338 TAMPINES ST 33
1,338 TAMPINES STREET 33 HDB PUBLIC SHELTERS SINGAPORE 520338,338,HDB PUBLIC SHELTERS,1.351918352,103.9596468,103.9596468,520338,TAMPINES STREET 33,HDB PUBLIC SHELTERS,42058.91461,37114.14413,338 TAMPINES ST 33
2,338 TAMPINES STREET 33 LIFE CHAMPS EDUCATION PTE LTD SINGAPORE 520338,338,LIFE CHAMPS EDUCATION PTE LTD,1.3519183419999998,103.9596468,103.9596468,520338,TAMPINES STREET 33,LIFE CHAMPS EDUCATION PTE LTD,42058.9147,37114.14301,338 TAMPINES ST 33
0,336 CLEMENTI AVENUE 2 HDB-CLEMENTI SINGAPORE 120336,336,HDB-CLEMENTI,1.316679432,103.76923120000001,103.76923120000001,120336,CLEMENTI AVENUE 2,HDB-CLEMENTI,20867.68967,33217.33101,336 CLEMENTI AVE 2
0,42 CHAI CHEE STREET PING YI GARDENS SINGAPORE 461042,42,PING YI GARDENS,1.327978774,103.9258048,103.9258048,461042,CHAI CHEE STREET,PING YI GARDENS,38292.77594,34466.85494,42 CHAI CHEE ST
0,110B PUNGGOL FIELD HDB-PUNGGOL SINGAPORE 822110,110B,HDB-PUNGGOL,1.3956602390000001,103.909627,103.909627,822110,PUNGGOL FIELD,HDB-PUNGGOL,36492.11534,41950.67164,110B PUNGGOL FIELD
0,772 PASIR RIS STREET 71 HDB-PASIR RIS SINGAPORE 510772,772,HDB-PASIR RIS,1.375375847,103.93697370000001,103.93697370000001,510772,PASIR RIS STREET 71,HDB-PASIR RIS,39535.53501,39707.83926,772 PASIR RIS ST 71
0,756 PASIR RIS STREET 71 HDB-PASIR RIS SINGAPORE 510756,756,HDB-PASIR RIS,1.37781592,103.93333259999999,103.93333259999999,510756,PASIR RIS STREET 71,HDB-PASIR RIS,39130.31832,39977.63323,756 PASIR RIS ST 71
0,203 BISHAN STREET 23 HDB-BISHAN SINGAPORE 570203,203,HDB-BISHAN,1.3545367419999998,103.847452,103.847452,570203,BISHAN STREET 23,HDB-BISHAN,29572.885560000002,37403.311369999996,203 BISHAN ST 23
0,647 JURONG WEST STREET 61 HDB-JURONG WEST SINGAPORE 640647,647,HDB-JURONG WEST,1.340111291,103.6973881,103.6973881,640647,JURONG WEST STREET 61,HDB-JURONG WEST,12872.383820000001,35808.6339,647 JURONG WEST ST 61
0,494E TAMPINES STREET 43 TAMPINES ALCOVES SINGAPORE 525494,494E,TAMPINES ALCOVES,1.364215315,103.95351120000001,103.95351120000001,525494,TAMPINES STREET 43,TAMPINES ALCOVES,41376.02443,38473.84801,494E TAMPINES ST 43
0,274B JURONG WEST STREET 25 WENYA SINGAPORE 642274,274B,WENYA,1.3528655530000002,103.7032805,103.7032805,642274,JURONG WEST STREET 25,WENYA,13528.22087,37218.90305,274B JURONG WEST ST 25
0,439A SENGKANG WEST AVENUE FERNVALE COURT SINGAPORE 791439,439A,FERNVALE COURT,1.391875231,103.8778554,103.8778554,791439,SENGKANG WEST AVENUE,FERNVALE COURT,32956.36436,41532.05371,439A SENGKANG WEST AVE
0,107 TECK WHYE LANE HDB-CHOA CHU KANG SINGAPORE 680107,107,HDB-CHOA CHU KANG,1.378055381,103.7535882,103.7535882,680107,TECK WHYE LANE,HDB-CHOA CHU KANG,19127.00711,40004.02667,107 TECK WHYE LANE
0,88 COMMONWEALTH CLOSE COMMONWEALTH HEIGHTS SINGAPORE 140088,88,COMMONWEALTH HEIGHTS,1.304886344,103.7991816,103.7991816,140088,COMMONWEALTH CLOSE,COMMONWEALTH HEIGHTS,24200.86333,31913.2461,88 C'WEALTH CL
0,24 TANGLIN HALT ROAD TANGLIN GROVE SINGAPORE 140024,24,TANGLIN GROVE,1.297677087,103.7996368,103.7996368,140024,TANGLIN HALT ROAD,TANGLIN GROVE,24251.51644,31116.08278,24 TANGLIN HALT RD
0,631 SENJA ROAD HDB-BUKIT PANJANG SINGAPORE 670631,631,HDB-BUKIT PANJANG,1.3866265869999999,103.76025770000001,103.76025770000001,670631,SENJA ROAD,HDB-BUKIT PANJANG,19869.26482,40951.76398,631 SENJA RD
1,631 SENJA ROAD ICHIBAN MONTESSORI KIDDIE KOLLEGE PTE. LTD. SINGAPORE 670631,631,ICHIBAN MONTESSORI KIDDIE KOLLEGE PTE. LTD.,1.3864780669999999,103.7602565,103.7602565,670631,SENJA ROAD,ICHIBAN MONTESSORI KIDDIE KOLLEGE PTE. LTD.,19869.12619,40935.341389999994,631 SENJA RD
0,91 TANGLIN HALT ROAD COMMONWEALTH VIEW SINGAPORE 142091,91,COMMONWEALTH VIEW,1.300727923,103.7994173,103.7994173,142091,TANGLIN HALT ROAD,COMMONWEALTH VIEW,24227.0909,31453.42885,91 TANGLIN HALT RD
0,629 SENJA ROAD SINGAPORE 670629,629,NIL,1.386528024,103.759279,103.759279,670629,SENJA ROAD,629 SENJA ROAD SINGAPORE 670629,19760.344419999998,40940.86877,629 SENJA RD
0,450D TAMPINES STREET 42 HDB-TAMPINES SINGAPORE 524450,450D,HDB-TAMPINES,1.3571353640000001,103.9528738,103.9528738,524450,TAMPINES STREET 42,HDB-TAMPINES,41305.124130000004,37690.97784,450D TAMPINES ST 42
0,90 BEDOK NORTH STREET 4 HDB-BEDOK SINGAPORE 460090,90,HDB-BEDOK,1.332149272,103.9404499,103.9404499,460090,BEDOK NORTH STREET 4,HDB-BEDOK,39922.614030000004,34928.07388,90 BEDOK NTH ST 4
0,677C JURONG WEST STREET 64 EDELWEISS@JURONG SINGAPORE 643677,677C,EDELWEISS@JURONG,1.3453526919999999,103.70496,103.70496,643677,JURONG WEST STREET 64,EDELWEISS@JURONG,13715.086080000001,36388.15725,677C JURONG WEST ST 64
0,284 TAMPINES STREET 22 HDB-TAMPINES SINGAPORE 520284,284,HDB-TAMPINES,1.349103845,103.9526282,103.9526282,520284,TAMPINES STREET 22,HDB-TAMPINES,41277.836760000006,36802.89019,284 TAMPINES ST 22
1,284 TAMPINES STREET 22 PCF SPARKLETOTS PRESCHOOL @ TAMPINES-CHANGKAT BLK 284 (KN) SINGAPORE 520284,284,PCF SPARKLETOTS PRESCHOOL @ TAMPINES-CHANGKAT BLK 284 (KN),1.349103845,103.9526282,103.9526282,520284,TAMPINES STREET 22,PCF SPARKLETOTS PRESCHOOL @ TAMPINES-CHANGKAT BLK 284 (KN),41277.837,36802.89019,284 TAMPINES ST 22
0,3B UPPER BOON KENG ROAD KALLANG HEIGHTS SINGAPORE 382003,3B,KALLANG HEIGHTS,1.314298734,103.8728282,103.8728282,382003,UPPER BOON KENG ROAD,KALLANG HEIGHTS,32397.04595,32954.02864,3B UPP BOON KENG RD
0,311 SERANGOON AVENUE 2 HDB-SERANGOON ESTATE SINGAPORE 550311,311,HDB-SERANGOON ESTATE,1.353762881,103.8663265,103.8663265,550311,SERANGOON AVENUE 2,HDB-SERANGOON ESTATE,31673.40133,37317.7621,311 SERANGOON AVE 2
0,103 PASIR RIS STREET 12 HDB-PASIR RIS SINGAPORE 510103,103,HDB-PASIR RIS,1.367695081,103.9584042,103.9584042,510103,PASIR RIS STREET 12,HDB-PASIR RIS,41920.53944,38858.65145,103 PASIR RIS ST 12
0,617A JURONG WEST STREET 65 MULTI STOREY CAR PARK SINGAPORE 641617,617A,MULTI STOREY CAR PARK,1.340878429,103.7000939,103.7000939,641617,JURONG WEST STREET 65,MULTI STOREY CAR PARK,13173.5147,35893.4438,617 JURONG WEST ST 65
1,617 JURONG WEST STREET 65 HDB-JURONG WEST SINGAPORE 640617,617,HDB-JURONG WEST,1.34092565,103.70056140000001,103.70056140000001,640617,JURONG WEST STREET 65,HDB-JURONG WEST,13225.53994,35898.66236,617 JURONG WEST ST 65
2,617 JURONG WEST STREET 65,617,NIL,1.340707154,103.7004697,103.7004697,NIL,JURONG WEST STREET 65,617 JURONG WEST STREET 65,13215.34181,35874.5027,617 JURONG WEST ST 65
0,207 TOA PAYOH NORTH TOA PAYOH NORTH SINGAPORE 310207,207,TOA PAYOH NORTH,1.34240197,103.8452265,103.8452265,310207,TOA PAYOH NORTH,TOA PAYOH NORTH,29325.223619999997,36061.50886,207 TOA PAYOH NTH
1,207 TOA PAYOH NORTH BOON TECK NEIGHBOURHOOD POLICE POST SINGAPORE 310207,207,BOON TECK NEIGHBOURHOOD POLICE POST,1.342382311,103.84559809999999,103.84559809999999,310207,TOA PAYOH NORTH,BOON TECK NEIGHBOURHOOD POLICE POST,29366.58191,36059.33532,207 TOA PAYOH NTH
0,642 YISHUN STREET 61 HDB-YISHUN SINGAPORE 760642,642,HDB-YISHUN,1.420970055,103.8374468,103.8374468,760642,YISHUN STREET 61,HDB-YISHUN,28459.41128,44749.16587,642 YISHUN ST 61
0,195D PUNGGOL ROAD THE PERIWINKLE SINGAPORE 824195,195D,THE PERIWINKLE,1.401367945,103.907096,103.907096,824195,PUNGGOL ROAD,THE PERIWINKLE,36210.42317,42581.79242,195D PUNGGOL RD
0,136 SERANGOON NORTH AVENUE 2 HDB-SERANGOON ESTATE SINGAPORE 550136,136,HDB-SERANGOON ESTATE,1.3681015980000002,103.8749878,103.8749878,550136,SERANGOON NORTH AVENUE 2,HDB-SERANGOON ESTATE,32637.2869,38903.279630000005,136 SERANGOON NTH AVE 2
0,448B SENGKANG WEST WAY FERNVALE CREST SINGAPORE 792448,448B,FERNVALE CREST,1.3934198169999998,103.8733199,103.8733199,792448,SENGKANG WEST WAY,FERNVALE CREST,32451.617580000002,41702.837210000005,448B SENGKANG WEST WAY
0,420 TAMPINES STREET 41 SUN PLAZA GARDENS SINGAPORE 520420,420,SUN PLAZA GARDENS,1.357864662,103.9475346,103.9475346,520420,TAMPINES STREET 41,SUN PLAZA GARDENS,40710.92714,37771.59135,420 TAMPINES ST 41
0,416 HOUGANG AVENUE 10 HARMONY VIEW SINGAPORE 530416,416,HARMONY VIEW,1.375685703,103.89628379999999,103.89628379999999,530416,HOUGANG AVENUE 10,HARMONY VIEW,35007.25268,39741.9435,416 HOUGANG AVE 10
0,474 ANG MO KIO AVENUE 10 TECK GHEE HORIZON SINGAPORE 560474,474,TECK GHEE HORIZON,1.362757847,103.85801529999999,103.85801529999999,560474,ANG MO KIO AVENUE 10,TECK GHEE HORIZON,30748.45675,38312.36871,474 ANG MO KIO AVE 10
0,126 SERANGOON NORTH AVENUE 1 HDB-SERANGOON NORTH ESTATE SINGAPORE 550126,126,HDB-SERANGOON NORTH ESTATE,1.366058217,103.87187490000001,103.87187490000001,550126,SERANGOON NORTH AVENUE 1,HDB-SERANGOON NORTH ESTATE,32290.853180000002,38677.32716,126 SERANGOON NTH AVE 1
0,33 CHAI CHEE AVENUE ANSAR GARDEN SINGAPORE 461033,33,ANSAR GARDEN,1.324009118,103.9258481,103.9258481,461033,CHAI CHEE AVENUE,ANSAR GARDEN,38297.61597,34027.9104,33 CHAI CHEE AVE
0,511 WOODLANDS DRIVE 14 HDB-WOODLANDS SINGAPORE 730511,511,HDB-WOODLANDS,1.4334529569999999,103.78865400000001,103.78865400000001,730511,WOODLANDS DRIVE 14,HDB-WOODLANDS,23029.50459,46129.51045,511 WOODLANDS DR 14
0,337 TAMPINES STREET 32 HDB-TAMPINES SINGAPORE 520337,337,HDB-TAMPINES,1.35238866,103.9598771,103.9598771,520337,TAMPINES STREET 32,HDB-TAMPINES,42084.540389999995,37166.149919999996,337 TAMPINES ST 32
0,490D CHOA CHU KANG AVENUE 5 SUNSHINE GARDENS SINGAPORE 684490,490D,SUNSHINE GARDENS,1.3760286919999998,103.7413682,103.7413682,684490,CHOA CHU KANG AVENUE 5,SUNSHINE GARDENS,17767.05803,39779.9744,490D CHOA CHU KANG AVE 5
0,441A FERNVALE ROAD FERNVALE VISTA SINGAPORE 791441,441A,FERNVALE VISTA,1.391097836,103.8751662,103.8751662,791441,FERNVALE ROAD,FERNVALE VISTA,32657.09515,41446.08785,441A FERNVALE RD
0,134 RIVERVALE STREET RIVERVALE PLAINS SINGAPORE 540134,134,RIVERVALE PLAINS,1.3878646769999998,103.90467290000001,103.90467290000001,540134,RIVERVALE STREET,RIVERVALE PLAINS,35940.812560000006,41088.65995,134 RIVERVALE ST
0,613A PUNGGOL DRIVE DAMAI GROVE SINGAPORE 821613,613A,DAMAI GROVE,1.40442052,103.907861,103.907861,821613,PUNGGOL DRIVE,DAMAI GROVE,36295.554410000004,42919.33368,613A PUNGGOL DR
0,352A CANBERRA ROAD HDB-SEMBAWANG SINGAPORE 751352,352A,HDB-SEMBAWANG,1.450655082,103.81965090000001,103.81965090000001,751352,CANBERRA ROAD,HDB-SEMBAWANG,26479.00316,48031.59114,352A CANBERRA RD
0,620 ANG MO KIO AVENUE 9 HDB-ANG MO KIO SINGAPORE 560620,620,HDB-ANG MO KIO,1.382440829,103.8395464,103.8395464,560620,ANG MO KIO AVENUE 9,HDB-ANG MO KIO,28693.07487,40488.79961,620 ANG MO KIO AVE 9
0,704 ANG MO KIO AVENUE 8 HDB-ANG MO KIO SINGAPORE 560704,704,HDB-ANG MO KIO,1.370407121,103.8472307,103.8472307,560704,ANG MO KIO AVENUE 8,HDB-ANG MO KIO,29548.25217,39158.17688,704 ANG MO KIO AVE 8
0,674A JURONG WEST STREET 65 HDB-JURONG WEST SINGAPORE 641674,674A,HDB-JURONG WEST,1.3444613369999998,103.7023153,103.7023153,641674,JURONG WEST STREET 65,HDB-JURONG WEST,13420.75424,36289.611110000005,674A JURONG WEST ST 65
0,393 YISHUN AVENUE 6 HDB-YISHUN SINGAPORE 760393,393,HDB-YISHUN,1.42851535,103.8485037,103.8485037,760393,YISHUN AVENUE 6,HDB-YISHUN,29689.880510000003,45583.49183,393 YISHUN AVE 6
0,58 COMMONWEALTH DRIVE COMMONWEALTH GREEN SINGAPORE 140058,58,COMMONWEALTH GREEN,1.297769693,103.79709009999999,103.79709009999999,140058,COMMONWEALTH DRIVE,COMMONWEALTH GREEN,23968.09594,31126.326589999997,58 C'WEALTH DR
0,689C WOODLANDS DRIVE 75 HDB-WOODLANDS SINGAPORE 733689,689C,HDB-WOODLANDS,1.444812046,103.8084061,103.8084061,733689,WOODLANDS DRIVE 75,HDB-WOODLANDS,25227.63061,47385.50819,689C WOODLANDS DR 75
0,53 HAVELOCK ROAD HAVELOCK VIEW SINGAPORE 161053,53,HAVELOCK VIEW,1.289336654,103.8289203,103.8289203,161053,HAVELOCK ROAD,HAVELOCK VIEW,27510.51398,30193.81614,53 HAVELOCK RD
0,67 KALLANG BAHRU GEYLANG BAHRU VILLE SINGAPORE 330067,67,GEYLANG BAHRU VILLE,1.3213944640000002,103.8693362,103.8693362,330067,KALLANG BAHRU,GEYLANG BAHRU VILLE,32008.401560000002,33738.63238,67 KALLANG BAHRU
0,63 NEW UPPER CHANGI ROAD HDB-BEDOK SINGAPORE 461063,63,HDB-BEDOK,1.323784101,103.939939,103.939939,461063,NEW UPPER CHANGI ROAD,HDB-BEDOK,39865.78592,34003.09214,63 NEW UPP CHANGI RD
0,24 TIONG BAHRU ROAD HDB-BUKIT MERAH SINGAPORE 164024,24,HDB-BUKIT MERAH,1.285726545,103.8312705,103.8312705,164024,TIONG BAHRU ROAD,HDB-BUKIT MERAH,27772.065110000003,29794.62865,24 TIONG BAHRU RD
0,322 HOUGANG AVENUE 5 HDB-HOUGANG SINGAPORE 530322,322,HDB-HOUGANG,1.367098554,103.8969787,103.8969787,530322,HOUGANG AVENUE 5,HDB-HOUGANG,35084.60772,38792.42171,322 HOUGANG AVE 5
1,322 HOUGANG AVENUE 5 DBS HOUGANG AVENUE 5-322 SINGAPORE 530322,322,DBS HOUGANG AVENUE 5-322,1.367098554,103.8969787,103.8969787,530322,HOUGANG AVENUE 5,DBS HOUGANG AVENUE 5-322,35084.60769,38792.42171,322 HOUGANG AVE 5
0,467A ADMIRALTY DRIVE BLUE RIVERVIEW SINGAPORE 751467,467A,BLUE RIVERVIEW,1.4520103340000001,103.813929,103.813929,751467,ADMIRALTY DRIVE,BLUE RIVERVIEW,25842.25398,48181.4528,467A ADMIRALTY DR
0,101 BEDOK NORTH AVENUE 4 PEARL GARDEN SINGAPORE 460101,101,PEARL GARDEN,1.3344846670000001,103.9379247,103.9379247,460101,BEDOK NORTH AVENUE 4,PEARL GARDEN,39641.57063,35186.29828,101 BEDOK NTH AVE 4
0,3 JALAN BATU DI TANJONG RHU SINGAPORE 431003,3,DI TANJONG RHU,1.302883932,103.88393420000001,103.88393420000001,431003,JALAN BATU,DI TANJONG RHU,33633.06216,31691.860380000002,3 JLN BATU
0,26 CHAI CHEE ROAD ANSAR GARDEN SINGAPORE 460026,26,ANSAR GARDEN,1.3233116120000001,103.9236205,103.9236205,460026,CHAI CHEE ROAD,ANSAR GARDEN,38049.701030000004,33950.774560000005,26 CHAI CHEE RD
0,570 PASIR RIS STREET 53 HDB-PASIR RIS SINGAPORE 510570,570,HDB-PASIR RIS,1.3727690559999999,103.9465105,103.9465105,510570,PASIR RIS STREET 53,HDB-PASIR RIS,40596.87768,39419.6412,570 PASIR RIS ST 53
1,570 PASIR RIS STREET 53 HDB PUBLIC SHELTERS SINGAPORE 510570,570,HDB PUBLIC SHELTERS,1.3727704109999999,103.9465108,103.9465108,510570,PASIR RIS STREET 53,HDB PUBLIC SHELTERS,40596.91176,39419.790960000006,570 PASIR RIS ST 53
2,570 PASIR RIS STREET 53 AL - AMIN PRESCHOOL (PASIR RIS) SINGAPORE 510570,570,AL - AMIN PRESCHOOL (PASIR RIS),1.3727690469999998,103.9465105,103.9465105,510570,PASIR RIS STREET 53,AL - AMIN PRESCHOOL (PASIR RIS),40596.877889999996,39419.6402,570 PASIR RIS ST 53
0,509 WOODLANDS DRIVE 14 HDB-WOODLANDS SINGAPORE 730509,509,HDB-WOODLANDS,1.432719712,103.7891156,103.7891156,730509,WOODLANDS DRIVE 14,HDB-WOODLANDS,23080.8758,46048.43091,509 WOODLANDS DR 14
0,684C JURONG WEST STREET 64 HDB-JURONG WEST SINGAPORE 643684,684C,HDB-JURONG WEST,1.3435865919999999,103.704503,103.704503,643684,JURONG WEST STREET 64,HDB-JURONG WEST,13664.2161,36192.87309,684C JURONG WEST ST 64
0,758 YISHUN STREET 72 HDB-YISHUN SINGAPORE 760758,758,HDB-YISHUN,1.4260295269999999,103.8342661,103.8342661,760758,YISHUN STREET 72,HDB-YISHUN,28105.4437,45308.616460000005,758 YISHUN ST 72
0,273C JURONG WEST AVENUE 3 WENYA SINGAPORE 643273,273C,WENYA,1.351832419,103.7040078,103.7040078,643273,JURONG WEST AVENUE 3,WENYA,13609.154040000001,37104.65978,273C JURONG WEST AVE 3
0,4 TOH YI DRIVE TOH YI GARDENS SINGAPORE 590004,4,TOH YI GARDENS,1.3385120670000001,103.7745698,103.7745698,590004,TOH YI DRIVE,TOH YI GARDENS,21461.88987,35631.45848,4 TOH YI DR
0,172 YISHUN AVENUE 7 HDB-YISHUN SINGAPORE 760172,172,HDB-YISHUN,1.43660111,103.831091,103.831091,760172,YISHUN AVENUE 7,HDB-YISHUN,27752.099189999997,46477.569019999995,172 YISHUN AVE 7
0,440 HOUGANG AVENUE 8 HDB-HOUGANG SINGAPORE 530440,440,HDB-HOUGANG,1.379131967,103.8935308,103.8935308,530440,HOUGANG AVENUE 8,HDB-HOUGANG,34700.862989999994,40123.00615,440 HOUGANG AVE 8
1,440 HOUGANG AVENUE 8 HDB PUBLIC SHELTERS SINGAPORE 530440,440,HDB PUBLIC SHELTERS,1.379133292,103.89352790000001,103.89352790000001,530440,HOUGANG AVENUE 8,HDB PUBLIC SHELTERS,34700.54006,40123.15274,440 HOUGANG AVE 8
0,346 JURONG EAST STREET 31 YUHUA PLACE SINGAPORE 600346,346,YUHUA PLACE,1.345376173,103.7305798,103.7305798,600346,JURONG EAST STREET 31,YUHUA PLACE,16566.29304,36390.61858,346 JURONG EAST ST 31
1,346 JURONG EAST STREET 31 UOB JURONG EAST STREET 31 SINGAPORE 600346,346,UOB JURONG EAST STREET 31,1.345377448,103.73058499999999,103.73058499999999,600346,JURONG EAST STREET 31,UOB JURONG EAST STREET 31,16566.8743,36390.75951,346 JURONG EAST ST 31
0,485 JURONG WEST AVENUE 1 JURONGVILLE @ AVENUE 1 SINGAPORE 640485,485,JURONGVILLE @ AVENUE 1,1.348347108,103.727243,103.727243,640485,JURONG WEST AVENUE 1,JURONGVILLE @ AVENUE 1,16194.964380000001,36719.145919999995,485 JURONG WEST AVE 1
0,327C ANCHORVALE ROAD ANCHORVALE HORIZON SINGAPORE 543327,327C,ANCHORVALE HORIZON,1.396093199,103.88872090000001,103.88872090000001,543327,ANCHORVALE ROAD,ANCHORVALE HORIZON,34165.54273,41998.48104,327C ANCHORVALE RD
0,505 WEST COAST DRIVE SINGAPORE 120505,505,NIL,1.312280541,103.7599815,103.7599815,120505,WEST COAST DRIVE,505 WEST COAST DRIVE SINGAPORE 120505,19838.28154,32730.95224,505 WEST COAST DR
1,505 WEST COAST DRIVE OCBC WEST COAST DRIVE - 7 ELEVEN SINGAPORE 120505,505,OCBC WEST COAST DRIVE - 7 ELEVEN,1.312278436,103.75997890000001,103.75997890000001,120505,WEST COAST DRIVE,OCBC WEST COAST DRIVE - 7 ELEVEN,19837.99209,32730.719510000003,505 WEST COAST DR
0,19 JALAN MEMBINA HDB-BUKIT MERAH SINGAPORE 163019,19,HDB-BUKIT MERAH,1.2855704159999999,103.8262762,103.8262762,163019,JALAN MEMBINA,HDB-BUKIT MERAH,27216.242439999998,29777.3657,19 JLN MEMBINA
0,311 HOUGANG AVENUE 5 HDB-HOUGANG SINGAPORE 530311,311,HDB-HOUGANG,1.365667331,103.8948537,103.8948537,530311,HOUGANG AVENUE 5,HDB-HOUGANG,34848.12418,38634.158110000004,311 HOUGANG AVE 5
1,311 HOUGANG AVENUE 5 CARELAND STUDENT CARE CENTRE (HOUGANG) SINGAPORE 530311,311,CARELAND STUDENT CARE CENTRE (HOUGANG),1.365669936,103.8948478,103.8948478,530311,HOUGANG AVENUE 5,CARELAND STUDENT CARE CENTRE (HOUGANG),34847.46709,38634.44621,311 HOUGANG AVE 5
0,425 BEDOK NORTH ROAD GARDEN HILL SINGAPORE 460425,425,GARDEN HILL,1.329369602,103.9290675,103.9290675,460425,BEDOK NORTH ROAD,GARDEN HILL,38655.88054,34620.65961,425 BEDOK NTH RD
0,212 BOON LAY PLACE BOON LAY PLACE SINGAPORE 640212,212,BOON LAY PLACE,1.349127041,103.713021,103.713021,640212,BOON LAY PLACE,BOON LAY PLACE,14612.213740000001,36805.46064,212 BOON LAY PL
0,156 YUNG LOH ROAD HDB-TAMAN JURONG SINGAPORE 610156,156,HDB-TAMAN JURONG,1.32789041,103.7217888,103.7217888,610156,YUNG LOH ROAD,HDB-TAMAN JURONG,15587.86878,34457.171669999996,156 YUNG LOH RD
1,156 YUNG LOH ROAD HDB PUBLIC SHELTERS SINGAPORE 610156,156,HDB PUBLIC SHELTERS,1.327892805,103.72178509999999,103.72178509999999,610156,YUNG LOH ROAD,HDB PUBLIC SHELTERS,15587.4535,34457.43655,156 YUNG LOH RD
0,649 PUNGGOL CENTRAL EASTDALE SINGAPORE 820649,649,EASTDALE,1.3972382369999998,103.91491540000001,103.91491540000001,820649,PUNGGOL CENTRAL,EASTDALE,37080.641410000004,42125.17858,649 PUNGGOL CTRL
0,816 TAMPINES AVENUE 4 TAMPINES POLYVIEW SINGAPORE 520816,816,TAMPINES POLYVIEW,1.34770505,103.9375556,103.9375556,520816,TAMPINES AVENUE 4,TAMPINES POLYVIEW,39600.427019999996,36648.14125,816 TAMPINES AVE 4
0,411 HOUGANG AVENUE 10 SINGAPORE 530411,411,NIL,1.374094139,103.8953126,103.8953126,530411,HOUGANG AVENUE 10,411 HOUGANG AVENUE 10 SINGAPORE 530411,34899.17579,39565.9536,411 HOUGANG AVE 10
0,896A TAMPINES STREET 81 TAMPINES GROVE SINGAPORE 521896,896A,TAMPINES GROVE,1.3485971780000001,103.9325463,103.9325463,521896,TAMPINES STREET 81,TAMPINES GROVE,39042.95112,36746.76515,896A TAMPINES ST 81
0,812 JURONG WEST STREET 81 HDB-JURONG WEST SINGAPORE 640812,812,HDB-JURONG WEST,1.346308544,103.6958638,103.6958638,640812,JURONG WEST STREET 81,HDB-JURONG WEST,12702.78883,36493.90593,812 JURONG WEST ST 81
1,812 JURONG WEST STREET 81 HDB PUBLIC SHELTERS SINGAPORE 640812,812,HDB PUBLIC SHELTERS,1.346309491,103.69586899999999,103.69586899999999,640812,JURONG WEST STREET 81,HDB PUBLIC SHELTERS,12703.36295,36494.01057,812 JURONG WEST ST 81
0,520 HOUGANG AVENUE 6 HDB-HOUGANG SINGAPORE 530520,520,HDB-HOUGANG,1.37310428,103.890062,103.890062,530520,HOUGANG AVENUE 6,HDB-HOUGANG,34314.8501,39456.48542,520 HOUGANG AVE 6
0,585 PASIR RIS STREET 53 HDB-PASIR RIS SINGAPORE 510585,585,HDB-PASIR RIS,1.375350847,103.9473766,103.9473766,510585,PASIR RIS STREET 53,HDB-PASIR RIS,40693.25182,39705.12764,585 PASIR RIS ST 53
1,585 PASIR RIS STREET 53 HDB PUBLIC SHELTERS SINGAPORE 510585,585,HDB PUBLIC SHELTERS,1.37555169,103.9475132,103.9475132,510585,PASIR RIS STREET 53,HDB PUBLIC SHELTERS,40708.45201,39727.33656,585 PASIR RIS ST 53
0,437 TAMPINES STREET 43 HDB-TAMPINES SINGAPORE 520437,437,HDB-TAMPINES,1.359966245,103.9515878,103.9515878,520437,TAMPINES STREET 43,HDB-TAMPINES,41161.99053,38003.99589,437 TAMPINES ST 43
0,608 BEDOK RESERVOIR ROAD EUNOS RAINBOW SINGAPORE 470608,608,EUNOS RAINBOW,1.3318412990000001,103.9131962,103.9131962,470608,BEDOK RESERVOIR ROAD,EUNOS RAINBOW,36889.55687,34893.904780000004,608 BEDOK RESERVOIR RD
0,482 TAMPINES STREET 43 HDB-TAMPINES SINGAPORE 520482,482,HDB-TAMPINES,1.361630492,103.9530009,103.9530009,520482,TAMPINES STREET 43,HDB-TAMPINES,41319.25168,38188.02792,482 TAMPINES ST 43
0,986C JURONG WEST STREET 93 SINGAPORE 643986,986C,NIL,1.3369570640000001,103.6956682,103.6956682,643986,JURONG WEST STREET 93,986C JURONG WEST STREET 93 SINGAPORE 643986,12680.95832,35459.86528,986C JURONG WEST ST 93
0,352 UBI AVENUE 1 KAMPONG UBI VIEW SINGAPORE 400352,352,KAMPONG UBI VIEW,1.3252270179999999,103.8994002,103.8994002,400352,UBI AVENUE 1,KAMPONG UBI VIEW,35354.222539999995,34162.48552,352 UBI AVE 1
0,514 HOUGANG AVENUE 10 BEDOK RESERVOIR - PUNGGOL VALE SINGAPORE 530514,514,BEDOK RESERVOIR - PUNGGOL VALE,1.372116705,103.88919270000001,103.88919270000001,530514,HOUGANG AVENUE 10,BEDOK RESERVOIR - PUNGGOL VALE,34218.1069,39347.2821,514 HOUGANG AVE 10
0,308 HOUGANG AVENUE 5 HDB-HOUGANG SINGAPORE 530308,308,HDB-HOUGANG,1.3668091080000002,103.895756,103.895756,530308,HOUGANG AVENUE 5,HDB-HOUGANG,34948.54421,38760.41275,308 HOUGANG AVE 5
0,2 GHIM MOH ROAD GHIM MOH GREEN SINGAPORE 270002,2,GHIM MOH GREEN,1.31237873,103.78697149999999,103.78697149999999,270002,GHIM MOH ROAD,GHIM MOH GREEN,22842.00511,32741.737569999998,2 GHIM MOH RD
0,663 JALAN DAMAI EUNOS DAMAI VILLE SINGAPORE 410663,663,EUNOS DAMAI VILLE,1.334759317,103.9087091,103.9087091,410663,JALAN DAMAI,EUNOS DAMAI VILLE,36390.17352,35216.5488,663 JLN DAMAI
0,457 CHOA CHU KANG AVENUE 4 HDB-CHOA CHU KANG SINGAPORE 680457,457,HDB-CHOA CHU KANG,1.378635453,103.7361868,103.7361868,680457,CHOA CHU KANG AVENUE 4,HDB-CHOA CHU KANG,17190.444919999998,40068.239989999995,457 CHOA CHU KANG AVE 4
0,218 BUKIT BATOK STREET 21 HDB-BUKIT BATOK SINGAPORE 650218,218,HDB-BUKIT BATOK,1.347295765,103.754196,103.754196,650218,BUKIT BATOK STREET 21,HDB-BUKIT BATOK,19194.53198,36602.77947,218 BT BATOK ST 21
0,41 CIRCUIT ROAD HDB-MACPHERSON SINGAPORE 370041,41,HDB-MACPHERSON,1.3272056859999999,103.88626740000001,103.88626740000001,370041,CIRCUIT ROAD,HDB-MACPHERSON,33892.668110000006,34381.24144,41 CIRCUIT RD
0,676A CHOA CHU KANG CRESCENT HDB-CHOA CHU KANG SINGAPORE 681676,676A,HDB-CHOA CHU KANG,1.4020008430000002,103.7466849,103.7466849,681676,CHOA CHU KANG CRESCENT,HDB-CHOA CHU KANG,18358.84161,42651.82431,676A CHOA CHU KANG CRES
0,877 WOODLANDS AVENUE 9 HDB-WOODLANDS SINGAPORE 730877,877,HDB-WOODLANDS,1.4451287609999999,103.7913203,103.7913203,730877,WOODLANDS AVENUE 9,HDB-WOODLANDS,23326.25114,47420.556939999995,877 WOODLANDS AVE 9
1,877 WOODLANDS AVENUE 9 BRIGHT JUNIORS PTE LTD SINGAPORE 730877,877,BRIGHT JUNIORS PTE LTD,1.445128755,103.7913203,103.7913203,730877,WOODLANDS AVENUE 9,BRIGHT JUNIORS PTE LTD,23326.2516,47420.55631,877 WOODLANDS AVE 9
0,351A TAMPINES STREET 33 MULTI STOREY CAR PARK SINGAPORE 521351,351A,MULTI STOREY CAR PARK,1.35228456,103.9628169,103.9628169,521351,TAMPINES STREET 33,MULTI STOREY CAR PARK,42411.71033,37154.6562,351 TAMPINES ST 33
1,351 TAMPINES STREET 33 HDB-TAMPINES SINGAPORE 520351,351,HDB-TAMPINES,1.352815451,103.9629132,103.9629132,520351,TAMPINES STREET 33,HDB-TAMPINES,42422.42486,37213.360160000004,351 TAMPINES ST 33
2,351 TAMPINES STREET 33 SAINT LUKE'S ELDERCARE CHANGKAT CENTRE SINGAPORE 520351,351,SAINT LUKE'S ELDERCARE CHANGKAT CENTRE,1.352956789,103.96306740000001,103.96306740000001,520351,TAMPINES STREET 33,SAINT LUKE'S ELDERCARE CHANGKAT CENTRE,42439.590619999995,37228.98958,351 TAMPINES ST 33
0,157 TAMPINES STREET 12 HDB-TAMPINES SINGAPORE 521157,157,HDB-TAMPINES,1.3510732909999998,103.94500390000002,103.94500390000002,521157,TAMPINES STREET 12,HDB-TAMPINES,40429.322869999996,37020.621569999996,157 TAMPINES ST 12
0,225 JURONG EAST STREET 21 HDB-JURONG EAST SINGAPORE 600225,225,HDB-JURONG EAST,1.34178121,103.7372515,103.7372515,600225,JURONG EAST STREET 21,HDB-JURONG EAST,17308.77055,35993.07516,225 JURONG EAST ST 21
0,125 HOUGANG AVENUE 1 HDB-HOUGANG SINGAPORE 530125,125,HDB-HOUGANG,1.352409842,103.8864916,103.8864916,530125,HOUGANG AVENUE 1,HDB-HOUGANG,33917.553360000005,37168.18983,125 HOUGANG AVE 1
1,125 HOUGANG AVENUE 1 PCF SPARKLETOTS PRESCHOOL @ PAYA LEBAR BLK 125 (KN) SINGAPORE 530125,125,PCF SPARKLETOTS PRESCHOOL @ PAYA LEBAR BLK 125 (KN),1.3524098359999999,103.8864916,103.8864916,530125,HOUGANG AVENUE 1,PCF SPARKLETOTS PRESCHOOL @ PAYA LEBAR BLK 125 (KN),33917.55369,37168.1891,125 HOUGANG AVE 1
0,238 LORONG 1 TOA PAYOH HDB-TOA PAYOH SINGAPORE 310238,238,HDB-TOA PAYOH,1.340210062,103.85157459999999,103.85157459999999,310238,LORONG 1 TOA PAYOH,HDB-TOA PAYOH,30031.7026,35819.14331,238 LOR 1 TOA PAYOH
0,613 YISHUN STREET 61 HDB-YISHUN SINGAPORE 760613,613,HDB-YISHUN,1.420066635,103.8352837,103.8352837,760613,YISHUN STREET 61,HDB-YISHUN,28218.68697,44649.269960000005,613 YISHUN ST 61
0,183A JELEBU ROAD SINGAPORE 671183,183A,NIL,1.37994475,103.7626754,103.7626754,671183,JELEBU ROAD,183A JELEBU ROAD SINGAPORE 671183,20138.29801,40212.91169,183 JELEBU RD
1,183 JELEBU ROAD HDB-BUKIT PANJANG SINGAPORE 670183,183,HDB-BUKIT PANJANG,1.379963836,103.7630483,103.7630483,670183,JELEBU ROAD,HDB-BUKIT PANJANG,20179.799069999997,40215.02085,183 JELEBU RD
2,183 JELEBU ROAD PCF SPARKLETOTS PRESCHOOL @ CASHEW 183 (CC) SINGAPORE 670183,183,PCF SPARKLETOTS PRESCHOOL @ CASHEW 183 (CC),1.379963826,103.7630483,103.7630483,670183,JELEBU ROAD,PCF SPARKLETOTS PRESCHOOL @ CASHEW 183 (CC),20179.79919,40215.01979,183 JELEBU RD
0,443 HOUGANG AVENUE 8 HDB-HOUGANG SINGAPORE 530443,443,HDB-HOUGANG,1.37948044,103.8932017,103.8932017,530443,HOUGANG AVENUE 8,HDB-HOUGANG,34664.239030000004,40161.53769,443 HOUGANG AVE 8
0,107 TOWNER ROAD HDB-KALLANG/WHAMPOA SINGAPORE 321107,107,HDB-KALLANG/WHAMPOA,1.3197950859999998,103.8604358,103.8604358,321107,TOWNER ROAD,HDB-KALLANG/WHAMPOA,31017.881460000004,33561.76877,107 TOWNER RD
1,107 TOWNER ROAD ASIAN WOMEN'S WELFARE ASSOCIATION (AWWA) FAMILY SERVICE CENTRE SINGAPORE 321107,107,ASIAN WOMEN'S WELFARE ASSOCIATION (AWWA) FAMILY SERVICE CENTRE,1.319337336,103.860226,103.860226,321107,TOWNER ROAD,ASIAN WOMEN'S WELFARE ASSOCIATION (AWWA) FAMILY SERVICE CENTRE,30994.52895,33511.1528,107 TOWNER RD
0,662 CHOA CHU KANG CRESCENT HDB-CHOA CHU KANG SINGAPORE 680662,662,HDB-CHOA CHU KANG,1.401474823,103.75079140000001,103.75079140000001,680662,CHOA CHU KANG CRESCENT,HDB-CHOA CHU KANG,18815.84521,42593.64301,662 CHOA CHU KANG CRES
0,986B BUANGKOK CRESCENT BUANGKOK COURT SINGAPORE 532986,986B,BUANGKOK COURT,1.382272735,103.8801292,103.8801292,532986,BUANGKOK CRESCENT,BUANGKOK COURT,33209.43252,40470.26298,986B BUANGKOK CRES
0,415 TAMPINES STREET 41 SUN PLAZA VIEW SINGAPORE 520415,415,SUN PLAZA VIEW,1.359458745,103.9469657,103.9469657,520415,TAMPINES STREET 41,SUN PLAZA VIEW,40647.60997,37947.854289999996,415 TAMPINES ST 41
0,972 HOUGANG STREET 91 HDB-HOUGANG SINGAPORE 530972,972,HDB-HOUGANG,1.3782204059999998,103.8794205,103.8794205,530972,HOUGANG STREET 91,HDB-HOUGANG,33130.5636,40022.1753,972 HOUGANG ST 91
0,158 WOODLANDS STREET 13 HDB-WOODLANDS SINGAPORE 730158,158,HDB-WOODLANDS,1.4340321569999999,103.77478,103.77478,730158,WOODLANDS STREET 13,HDB-WOODLANDS,21485.53876,46193.59035,158 WOODLANDS ST 13
0,136 BUKIT BATOK WEST AVENUE 6 HDB-BUKIT BATOK SINGAPORE 650136,136,HDB-BUKIT BATOK,1.350900429,103.74485759999999,103.74485759999999,650136,BUKIT BATOK WEST AVENUE 6,HDB-BUKIT BATOK,18155.28915,37001.40104,136 BT BATOK WEST AVE 6
0,232 ANG MO KIO AVENUE 3 KEBUN BARU PALM VIEW SINGAPORE 560232,232,KEBUN BARU PALM VIEW,1.3683460680000001,103.83719599999999,103.83719599999999,560232,ANG MO KIO AVENUE 3,KEBUN BARU PALM VIEW,28431.51545,38930.27201,232 ANG MO KIO AVE 3
0,108 LORONG 1 TOA PAYOH TOA PAYOH NORTH SINGAPORE 310108,108,TOA PAYOH NORTH,1.341552529,103.84729509999998,103.84729509999998,310108,LORONG 1 TOA PAYOH,TOA PAYOH NORTH,29555.44084,35967.583289999995,108 LOR 1 TOA PAYOH
0,756 CHOA CHU KANG NORTH 5 HDB-CHOA CHU KANG SINGAPORE 680756,756,HDB-CHOA CHU KANG,1.3924877569999998,103.7456787,103.7456787,680756,CHOA CHU KANG NORTH 5,HDB-CHOA CHU KANG,18246.83297,41599.91828,756 CHOA CHU KANG NTH 5
0,572 PASIR RIS STREET 53 HDB-PASIR RIS SINGAPORE 510572,572,HDB-PASIR RIS,1.37352014,103.9456155,103.9456155,510572,PASIR RIS STREET 53,HDB-PASIR RIS,40497.27534,39502.68774,572 PASIR RIS ST 53
0,855 JURONG WEST STREET 81 HDB-JURONG WEST SINGAPORE 640855,855,HDB-JURONG WEST,1.346919494,103.6961882,103.6961882,640855,JURONG WEST STREET 81,HDB-JURONG WEST,12738.895540000001,36561.4598,855 JURONG WEST ST 81
0,619 JURONG WEST STREET 65 HDB-JURONG WEST SINGAPORE 640619,619,HDB-JURONG WEST,1.3415173459999998,103.6998994,103.6998994,640619,JURONG WEST STREET 65,HDB-JURONG WEST,13151.87224,35964.0933,619 JURONG WEST ST 65
0,418 BEDOK NORTH AVENUE 2 GARDEN HILL SINGAPORE 460418,418,GARDEN HILL,1.328564212,103.9300365,103.9300365,460418,BEDOK NORTH AVENUE 2,GARDEN HILL,38763.72258,34531.60782,418 BEDOK NTH AVE 2
0,516 WEST COAST ROAD WEST COAST PRIDE SINGAPORE 120516,516,WEST COAST PRIDE,1.308167622,103.76044559999998,103.76044559999998,120516,WEST COAST ROAD,WEST COAST PRIDE,19889.91046,32276.16486,516 WEST COAST RD
0,313 TAMPINES STREET 33 HDB-TAMPINES SINGAPORE 520313,313,HDB-TAMPINES,1.3522170480000002,103.9568041,103.9568041,520313,TAMPINES STREET 33,HDB-TAMPINES,41742.54907,37147.15621,313 TAMPINES ST 33
1,313 TAMPINES STREET 33 HDB PUBLIC SHELTERS SINGAPORE 520313,313,HDB PUBLIC SHELTERS,1.3522176680000002,103.95680990000001,103.95680990000001,520313,TAMPINES STREET 33,HDB PUBLIC SHELTERS,41743.19466,37147.2248,313 TAMPINES ST 33
0,411 SAUJANA ROAD HDB-BUKIT PANJANG SINGAPORE 670411,411,HDB-BUKIT PANJANG,1.3831005619999999,103.767566,103.767566,670411,SAUJANA ROAD,HDB-BUKIT PANJANG,20682.5761,40561.849989999995,411 SAUJANA RD
0,530 ANG MO KIO AVENUE 10 CHENG SAN CENTRE SINGAPORE 560530,530,CHENG SAN CENTRE,1.372732438,103.85527330000001,103.85527330000001,560530,ANG MO KIO AVENUE 10,CHENG SAN CENTRE,30443.28728,39415.30528,530 ANG MO KIO AVE 10
0,618 WOODLANDS AVENUE 4 HDB-WOODLANDS SINGAPORE 730618,618,HDB-WOODLANDS,1.4336408880000002,103.7966442,103.7966442,730618,WOODLANDS AVENUE 4,HDB-WOODLANDS,23918.69483,46150.27517,618 WOODLANDS AVE 4
0,484 ADMIRALTY LINK HDB-SEMBAWANG SINGAPORE 750484,484,HDB-SEMBAWANG,1.457071216,103.8153084,103.8153084,750484,ADMIRALTY LINK,HDB-SEMBAWANG,25995.76545,48741.05857,484 ADMIRALTY LINK
0,205 TAMPINES STREET 21 HDB-TAMPINES SINGAPORE 520205,205,HDB-TAMPINES,1.351717551,103.951966,103.951966,520205,TAMPINES STREET 21,HDB-TAMPINES,41204.13413,37091.8975,205 TAMPINES ST 21
1,205 TAMPINES STREET 21 3-IN-1 FAMILY CENTRE SINGAPORE 520205,205,3-IN-1 FAMILY CENTRE,1.35171765,103.9519631,103.9519631,520205,TAMPINES STREET 21,3-IN-1 FAMILY CENTRE,41203.80481,37091.90839,205 TAMPINES ST 21
0,133 YISHUN STREET 11 HDB-YISHUN SINGAPORE 760133,133,HDB-YISHUN,1.4325573719999998,103.83078409999999,103.83078409999999,760133,YISHUN STREET 11,HDB-YISHUN,27717.951910000003,46030.432839999994,133 YISHUN ST 11
0,412A FERNVALE LINK CORAL VALE SINGAPORE 791412,412A,CORAL VALE,1.3892312359999999,103.8779061,103.8779061,791412,FERNVALE LINK,CORAL VALE,32962.00692,41239.69423,412A FERNVALE LINK
0,59 MARINE TERRACE MARINE TERRACE HAVEN SINGAPORE 440059,59,MARINE TERRACE HAVEN,1.305859665,103.9147218,103.9147218,440059,MARINE TERRACE,MARINE TERRACE HAVEN,37059.428060000006,32020.99177,59 MARINE TER
1,59 MARINE TERRACE UOB MARINE TERRACE SINGAPORE 440059,59,UOB MARINE TERRACE,1.305856485,103.91472990000001,103.91472990000001,440059,MARINE TERRACE,UOB MARINE TERRACE,37060.33041,32020.640089999997,59 MARINE TER
2,59 MARINE TERRACE OCBC GUARDIAN PHARMACY SINGAPORE 440059,59,OCBC GUARDIAN PHARMACY,1.305856485,103.91472990000001,103.91472990000001,440059,MARINE TERRACE,OCBC GUARDIAN PHARMACY,37060.33041,32020.640089999997,59 MARINE TER
0,454 JURONG WEST STREET 42 HDB-JURONG WEST SINGAPORE 640454,454,HDB-JURONG WEST,1.3509285690000001,103.7175979,103.7175979,640454,JURONG WEST STREET 42,HDB-JURONG WEST,15121.5825,37004.64011,454 JURONG WEST ST 42
0,17A TELOK BLANGAH CRESCENT MOUNT FABER VIEW SINGAPORE 091017,17A,MOUNT FABER VIEW,1.277382607,103.82160400000001,103.82160400000001,091017,TELOK BLANGAH CRESCENT,MOUNT FABER VIEW,26696.25867,28872.00194,17A TELOK BLANGAH CRES
0,716 BEDOK RESERVOIR ROAD BEDOK RESERVOIR GARDEN SINGAPORE 470716,716,BEDOK RESERVOIR GARDEN,1.337837952,103.92497370000001,103.92497370000001,470716,BEDOK RESERVOIR ROAD,BEDOK RESERVOIR GARDEN,38200.23993,35557.03032,716 BEDOK RESERVOIR RD
0,139B LORONG 1A TOA PAYOH THE PEAK @ TOA PAYOH SINGAPORE 312139,139B,THE PEAK @ TOA PAYOH,1.336711091,103.8438782,103.8438782,312139,LORONG 1A TOA PAYOH,THE PEAK @ TOA PAYOH,29175.169360000004,35432.23993,139B LOR 1A TOA PAYOH
0,148 WOODLANDS STREET 13 HDB-WOODLANDS SINGAPORE 730148,148,HDB-WOODLANDS,1.43576275,103.77403000000001,103.77403000000001,730148,WOODLANDS STREET 13,HDB-WOODLANDS,21402.07849,46384.95283,148 WOODLANDS ST 13
0,102 ANG MO KIO AVENUE 3 KEBUN BARU HEIGHTS SINGAPORE 560102,102,KEBUN BARU HEIGHTS,1.370650098,103.8394103,103.8394103,560102,ANG MO KIO AVENUE 3,KEBUN BARU HEIGHTS,28677.939,39185.04038,102 ANG MO KIO AVE 3
1,102 ANG MO KIO AVENUE 3 CHILD AT STREET 11 LTD SINGAPORE 560102,102,CHILD AT STREET 11 LTD,1.370650092,103.8394103,103.8394103,560102,ANG MO KIO AVENUE 3,CHILD AT STREET 11 LTD,28677.94,39185.03981,102 ANG MO KIO AVE 3
0,181 PASIR RIS STREET 11 HDB-PASIR RIS SINGAPORE 510181,181,HDB-PASIR RIS,1.3643975430000002,103.9605721,103.9605721,510181,PASIR RIS STREET 11,HDB-PASIR RIS,42161.82173,38494.03827,181 PASIR RIS ST 11
0,672A KLANG LANE HDB-CENTRAL AREA SINGAPORE 211672,672A,HDB-CENTRAL AREA,1.308490524,103.8525463,103.8525463,211672,KLANG LANE,HDB-CENTRAL AREA,30139.86358,32311.760130000002,672A KLANG LANE
0,13 EUNOS CRESCENT HDB-JALAN EUNOS SINGAPORE 400013,13,HDB-JALAN EUNOS,1.322686619,103.90350090000001,103.90350090000001,400013,EUNOS CRESCENT,HDB-JALAN EUNOS,35810.597330000004,33881.5936,13 EUNOS CRES
0,494A JURONG WEST STREET 41 SINGAPORE 641494,494A,NIL,1.349557514,103.72432909999999,103.72432909999999,641494,JURONG WEST STREET 41,494A JURONG WEST STREET 41 SINGAPORE 641494,15870.679930000002,36853.00093,494 JURONG WEST ST 41
1,494 JURONG WEST STREET 41 HDB-JURONG WEST SINGAPORE 640494,494,HDB-JURONG WEST,1.3495075019999998,103.724914,103.724914,640494,JURONG WEST STREET 41,HDB-JURONG WEST,15935.77655,36847.46797,494 JURONG WEST ST 41
2,494 JURONG WEST STREET 41 DBS JURONG WEST STREET 41 SINGAPORE 640494,494,DBS JURONG WEST STREET 41,1.3495018730000001,103.7249144,103.7249144,640494,JURONG WEST STREET 41,DBS JURONG WEST STREET 41,15935.8235,36846.84551,494 JURONG WEST ST 41
3,494 JURONG WEST STREET 41 UOB JURONG WEST STREET 41 SINGAPORE 640494,494,UOB JURONG WEST STREET 41,1.3495018730000001,103.7249144,103.7249144,640494,JURONG WEST STREET 41,UOB JURONG WEST STREET 41,15935.8235,36846.84551,494 JURONG WEST ST 41
0,233 COMPASSVALE WALK COMPASSVALE PLAINS SINGAPORE 540233,233,COMPASSVALE PLAINS,1.389940815,103.90072140000001,103.90072140000001,540233,COMPASSVALE WALK,COMPASSVALE PLAINS,35501.05265,41318.21606,233 COMPASSVALE WALK
0,974 JURONG WEST STREET 93 HDB-JURONG WEST SINGAPORE 640974,974,HDB-JURONG WEST,1.3396471779999999,103.69327209999999,103.69327209999999,640974,JURONG WEST STREET 93,HDB-JURONG WEST,12414.31899,35757.34027,974 JURONG WEST ST 93
0,435 YISHUN AVENUE 6 HDB-YISHUN SINGAPORE 760435,435,HDB-YISHUN,1.421332274,103.84728100000001,103.84728100000001,760435,YISHUN AVENUE 6,HDB-YISHUN,29553.81987,44789.22255,435 YISHUN AVE 6
0,633 BEDOK RESERVOIR ROAD EUNOS TENAGA VILLE SINGAPORE 410633,633,EUNOS TENAGA VILLE,1.330388938,103.9052209,103.9052209,410633,BEDOK RESERVOIR ROAD,EUNOS TENAGA VILLE,36001.9922,34733.2826,633 BEDOK RESERVOIR RD
0,899B WOODLANDS DRIVE 50 HDB-WOODLANDS SINGAPORE 731899,899B,HDB-WOODLANDS,1.436133348,103.79526429999999,103.79526429999999,731899,WOODLANDS DRIVE 50,HDB-WOODLANDS,23765.1367,46425.88141,899B WOODLANDS DR 50
1,899B WOODLANDS DRIVE 50 PCF SPARKLETOTS PRESCHOOL @ WOODGROVE BLK 899B (KN) SINGAPORE 731899,899B,PCF SPARKLETOTS PRESCHOOL @ WOODGROVE BLK 899B (KN),1.4361333459999999,103.79526429999999,103.79526429999999,731899,WOODLANDS DRIVE 50,PCF SPARKLETOTS PRESCHOOL @ WOODGROVE BLK 899B (KN),23765.13691,46425.8812,899B WOODLANDS DR 50
0,842 TAMPINES STREET 82 TAMPINES VILLE SINGAPORE 520842,842,TAMPINES VILLE,1.351738509,103.9359524,103.9359524,520842,TAMPINES STREET 82,TAMPINES VILLE,39421.99114,37094.133760000004,842 TAMPINES ST 82
0,307B ANG MO KIO AVENUE 1 TECK GHEE VISTA SINGAPORE 562307,307B,TECK GHEE VISTA,1.36583937,103.84463079999999,103.84463079999999,562307,ANG MO KIO AVENUE 1,TECK GHEE VISTA,29258.91848,38653.096730000005,307B ANG MO KIO AVE 1
0,142 BISHAN STREET 12 BISHAN GREEN SINGAPORE 570142,142,BISHAN GREEN,1.345501861,103.8534436,103.8534436,570142,BISHAN STREET 12,BISHAN GREEN,30239.69783,36404.28503,142 BISHAN ST 12
0,1208 UPPER BOON KENG ROAD SINGAPORE 387312,1208,NIL,1.31627846,103.8738512,103.8738512,387312,UPPER BOON KENG ROAD,1208 UPPER BOON KENG ROAD SINGAPORE 387312,32510.88299,33172.93844,12 UPP BOON KENG RD
1,1211 UPPER BOON KENG ROAD SINGAPORE 387313,1211,NIL,1.316329624,103.87257009999999,103.87257009999999,387313,UPPER BOON KENG ROAD,1211 UPPER BOON KENG ROAD SINGAPORE 387313,32368.31655,33178.59368,12 UPP BOON KENG RD
2,1215 UPPER BOON KENG ROAD SINGAPORE 387315,1215,NIL,1.31721083,103.8728052,103.8728052,387315,UPPER BOON KENG ROAD,1215 UPPER BOON KENG ROAD SINGAPORE 387315,32394.473260000002,33276.03331,12 UPP BOON KENG RD
3,12 UPPER BOON KENG ROAD BOON KENG VILLE SINGAPORE 380012,12,BOON KENG VILLE,1.314230663,103.87006109999999,103.87006109999999,380012,UPPER BOON KENG ROAD,BOON KENG VILLE,32089.09555,32946.49706,12 UPP BOON KENG RD
4,1208 UPPER BOON KENG ROAD THE WINSTEDT SCHOOL SINGAPORE 387312,1208,THE WINSTEDT SCHOOL,1.316270863,103.8739473,103.8739473,387312,UPPER BOON KENG ROAD,THE WINSTEDT SCHOOL,32521.57897,33172.0986,12 UPP BOON KENG RD
5,1205 UPPER BOON KENG ROAD GEYLANG WEST COMMUNITY CLUB SINGAPORE 387311,1205,GEYLANG WEST COMMUNITY CLUB,1.315573132,103.8726203,103.8726203,387311,UPPER BOON KENG ROAD,GEYLANG WEST COMMUNITY CLUB,32373.901960000003,33094.94475,12 UPP BOON KENG RD
6,1205 UPPER BOON KENG ROAD T-NET CLUB @ GEYLANG WEST SINGAPORE 387311,1205,T-NET CLUB @ GEYLANG WEST,1.3155868179999999,103.87246400000001,103.87246400000001,387311,UPPER BOON KENG ROAD,T-NET CLUB @ GEYLANG WEST,32356.50256,33096.45775,12 UPP BOON KENG RD
7,1205 UPPER BOON KENG ROAD HAPPY TOWN CHILD CARE CENTRE SINGAPORE 387311,1205,HAPPY TOWN CHILD CARE CENTRE,1.31569112,103.8723879,103.8723879,387311,UPPER BOON KENG ROAD,HAPPY TOWN CHILD CARE CENTRE,32348.03319,33107.990789999996,12 UPP BOON KENG RD
8,12 UPPER BOON KENG ROAD PCF SPARKLETOTS PRESCHOOL @ KOLAM AYER BLK 12 (KN) SINGAPORE 380012,12,PCF SPARKLETOTS PRESCHOOL @ KOLAM AYER BLK 12 (KN),1.3142306670000001,103.87006120000001,103.87006120000001,380012,UPPER BOON KENG ROAD,PCF SPARKLETOTS PRESCHOOL @ KOLAM AYER BLK 12 (KN),32089.095910000004,32946.49751,12 UPP BOON KENG RD
0,178 EDGEFIELD PLAINS SINGAPORE 820178,178,NIL,1.399406544,103.90843100000001,103.90843100000001,820178,EDGEFIELD PLAINS,178 EDGEFIELD PLAINS SINGAPORE 820178,36359.00159,42364.91521,178 EDGEFIELD PLAINS
0,132 CLARENCE LANE CLARENCE VILLE SINGAPORE 140132,132,CLARENCE VILLE,1.292255234,103.8148798,103.8148798,140132,CLARENCE LANE,CLARENCE VILLE,25947.92381,30516.54473,132 CLARENCE LANE
1,132 CLARENCE LANE HDB PUBLIC SHELTERS SINGAPORE 140132,132,HDB PUBLIC SHELTERS,1.292071781,103.8149499,103.8149499,140132,CLARENCE LANE,HDB PUBLIC SHELTERS,25955.72714,30496.259339999997,132 CLARENCE LANE
0,288D BUKIT BATOK STREET 25 NATURE VIEW SINGAPORE 653288,288D,NATURE VIEW,1.345803048,103.75926009999999,103.75926009999999,653288,BUKIT BATOK STREET 25,NATURE VIEW,19758.09905,36437.70467,288D BT BATOK ST 25
0,174C EDGEDALE PLAINS HDB-PUNGGOL SINGAPORE 823174,174C,HDB-PUNGGOL,1.396973051,103.9104245,103.9104245,823174,EDGEDALE PLAINS,HDB-PUNGGOL,36580.864760000004,42095.83883,174C EDGEDALE PLAINS
0,229 PASIR RIS STREET 21 HDB-PASIR RIS SINGAPORE 510229,229,HDB-PASIR RIS,1.3726893480000002,103.9617806,103.9617806,510229,PASIR RIS STREET 21,HDB-PASIR RIS,42296.25789,39410.91327,229 PASIR RIS ST 21
1,229 PASIR RIS STREET 21,229,NIL,1.372688535,103.9617786,103.9617786,NIL,PASIR RIS STREET 21,229 PASIR RIS STREET 21,42296.04459,39410.823410000005,229 PASIR RIS ST 21
2,229 PASIR RIS STREET 21 GROW & GLOW @ PASIR RIS 21 CENTRE SINGAPORE 510229,229,GROW & GLOW @ PASIR RIS 21 CENTRE,1.372688535,103.9617786,103.9617786,510229,PASIR RIS STREET 21,GROW & GLOW @ PASIR RIS 21 CENTRE,42296.04459,39410.823410000005,229 PASIR RIS ST 21
0,35A JALAN RUMAH TINGGI RUMAH TINGGI VIEW SINGAPORE 151035,35A,RUMAH TINGGI VIEW,1.287693947,103.8089335,103.8089335,151035,JALAN RUMAH TINGGI,RUMAH TINGGI VIEW,25286.14516,30012.186660000003,35 JLN RUMAH TINGGI
1,35 JALAN RUMAH TINGGI RUMAH TINGGI VIEW SINGAPORE 150035,35,RUMAH TINGGI VIEW,1.287965957,103.80895579999999,103.80895579999999,150035,JALAN RUMAH TINGGI,RUMAH TINGGI VIEW,25288.63373,30042.2641,35 JLN RUMAH TINGGI
2,35 JALAN RUMAH TINGGI HDB PUBLIC SHELTERS SINGAPORE 150035,35,HDB PUBLIC SHELTERS,1.2879730090000001,103.80883929999999,103.80883929999999,150035,JALAN RUMAH TINGGI,HDB PUBLIC SHELTERS,25275.6593,30043.043960000003,35 JLN RUMAH TINGGI
0,335 TAMPINES STREET 32 HDB-TAMPINES SINGAPORE 520335,335,HDB-TAMPINES,1.3525049390000001,103.9605945,103.9605945,520335,TAMPINES STREET 32,HDB-TAMPINES,42164.3827,37179.01163,335 TAMPINES ST 32
0,410A FERNVALE ROAD CORAL SPRING SINGAPORE 791410,410A,CORAL SPRING,1.390052695,103.8759405,103.8759405,791410,FERNVALE ROAD,CORAL SPRING,32743.26513,41330.52297,410A FERNVALE RD
0,325 CLEMENTI AVENUE 5 HDB-CLEMENTI SINGAPORE 120325,325,HDB-CLEMENTI,1.315096685,103.76681740000001,103.76681740000001,120325,CLEMENTI AVENUE 5,HDB-CLEMENTI,20599.0579,33042.325919999996,325 CLEMENTI AVE 5
1,325 CLEMENTI AVENUE 5 OCBC CLEMENTI AVENUE 5 SINGAPORE 120325,325,OCBC CLEMENTI AVENUE 5,1.315426719,103.7668401,103.7668401,120325,CLEMENTI AVENUE 5,OCBC CLEMENTI AVENUE 5,20601.58739,33078.8193,325 CLEMENTI AVE 5
0,584 WOODLANDS DRIVE 16 HDB-WOODLANDS SINGAPORE 730584,584,HDB-WOODLANDS,1.429557314,103.7948078,103.7948078,730584,WOODLANDS DRIVE 16,HDB-WOODLANDS,23714.3242,45698.7373,584 WOODLANDS DR 16
0,653C JURONG WEST STREET 61 HDB-JURONG WEST SINGAPORE 643653,653C,HDB-JURONG WEST,1.335425627,103.6969347,103.6969347,643653,JURONG WEST STREET 61,HDB-JURONG WEST,12821.89531,35290.51848,653C JURONG WEST ST 61
1,653C JURONG WEST STREET 61 DAYSTAR CHILD DEVELOPMENT CENTRE SINGAPORE 643653,653C,DAYSTAR CHILD DEVELOPMENT CENTRE,1.335425617,103.6969347,103.6969347,643653,JURONG WEST STREET 61,DAYSTAR CHILD DEVELOPMENT CENTRE,12821.8961,35290.5174,653C JURONG WEST ST 61
0,31 HOLLAND CLOSE HDB-QUEENSTOWN SINGAPORE 270031,31,HDB-QUEENSTOWN,1.306975268,103.79708029999999,103.79708029999999,270031,HOLLAND CLOSE,HDB-QUEENSTOWN,23967.018669999998,32144.23189,31 HOLLAND CL
1,31 HOLLAND CLOSE VET PRACTICE (HOLLAND) SINGAPORE 270031,31,VET PRACTICE (HOLLAND),1.307022108,103.7970243,103.7970243,270031,HOLLAND CLOSE,VET PRACTICE (HOLLAND),23960.78734,32149.41123,31 HOLLAND CL
0,360 BUKIT BATOK STREET 31 HDB-BUKIT BATOK SINGAPORE 650360,360,HDB-BUKIT BATOK,1.3610670480000002,103.7506254,103.7506254,650360,BUKIT BATOK STREET 31,HDB-BUKIT BATOK,18797.2176,38125.55253,360 BT BATOK ST 31
0,915 HOUGANG STREET 91 HDB-HOUGANG SINGAPORE 530915,915,HDB-HOUGANG,1.377521837,103.88381329999999,103.88381329999999,530915,HOUGANG STREET 91,HDB-HOUGANG,33619.43109,39944.941060000005,915 HOUGANG ST 91
1,915 HOUGANG STREET 91 HDB PUBLIC SHELTERS SINGAPORE 530915,915,HDB PUBLIC SHELTERS,1.377518935,103.88356800000001,103.88356800000001,530915,HOUGANG STREET 91,HDB PUBLIC SHELTERS,33592.133910000004,39944.61952,915 HOUGANG ST 91
2,915 HOUGANG STREET 91 JENIUS KINDERGARTEN (HOUGANG) SINGAPORE 530915,915,JENIUS KINDERGARTEN (HOUGANG),1.377570295,103.8835662,103.8835662,530915,HOUGANG STREET 91,JENIUS KINDERGARTEN (HOUGANG),33591.93481,39950.298610000005,915 HOUGANG ST 91
0,141 PASIR RIS STREET 11 HDB-PASIR RIS SINGAPORE 510141,141,HDB-PASIR RIS,1.36418011,103.9587356,103.9587356,510141,PASIR RIS STREET 11,HDB-PASIR RIS,41957.43447,38469.98481,141 PASIR RIS ST 11
0,312 TAMPINES STREET 33 HDB-TAMPINES SINGAPORE 520312,312,HDB-TAMPINES,1.352570368,103.9572573,103.9572573,520312,TAMPINES STREET 33,HDB-TAMPINES,41792.98767,37186.22725,312 TAMPINES ST 33
0,617C PUNGGOL DRIVE PUNGGOL BREEZE SINGAPORE 823617,617C,PUNGGOL BREEZE,1.40194562,103.9124567,103.9124567,823617,PUNGGOL DRIVE,PUNGGOL BREEZE,36807.0041,42645.68835,617C PUNGGOL DR
0,177 WOODLANDS STREET 13 HDB-WOODLANDS SINGAPORE 730177,177,HDB-WOODLANDS,1.434357914,103.7780884,103.7780884,730177,WOODLANDS STREET 13,HDB-WOODLANDS,21853.72112,46229.60171,177 WOODLANDS ST 13
0,328 SERANGOON AVENUE 3 HDB-SERANGOON WEST SINGAPORE 550328,328,HDB-SERANGOON WEST,1.3502861590000002,103.8683526,103.8683526,550328,SERANGOON AVENUE 3,HDB-SERANGOON WEST,31898.896930000003,36933.32704,328 SERANGOON AVE 3
0,188B RIVERVALE DRIVE RIVERVALE GATEWAY SINGAPORE 542188,188B,RIVERVALE GATEWAY,1.394540687,103.905459,103.905459,542188,RIVERVALE DRIVE,RIVERVALE GATEWAY,36028.27171,41826.86248,188B RIVERVALE DR
0,239 LORONG 1 TOA PAYOH HDB-TOA PAYOH SINGAPORE 310239,239,HDB-TOA PAYOH,1.340508942,103.8510407,103.8510407,310239,LORONG 1 TOA PAYOH,HDB-TOA PAYOH,29972.282560000003,35852.19141,239 LOR 1 TOA PAYOH
0,724 JURONG WEST STREET 72 HDB-JURONG WEST SINGAPORE 640724,724,HDB-JURONG WEST,1.3450867180000001,103.6981859,103.6981859,640724,JURONG WEST STREET 72,HDB-JURONG WEST,12961.19684,36358.7878,724 JURONG WEST ST 72
1,724 JURONG WEST STREET 72,724,NIL,1.345086716,103.6981859,103.6981859,NIL,JURONG WEST STREET 72,724 JURONG WEST STREET 72,12961.1979,36358.78759,724 JURONG WEST ST 72
2,724 JURONG WEST STREET 72 HDB PUBLIC SHELTERS SINGAPORE 640724,724,HDB PUBLIC SHELTERS,1.3450905219999998,103.69819059999999,103.69819059999999,640724,JURONG WEST STREET 72,HDB PUBLIC SHELTERS,12961.72517,36359.208380000004,724 JURONG WEST ST 72
0,218 PETIR ROAD HDB-BUKIT PANJANG SINGAPORE 670218,218,HDB-BUKIT PANJANG,1.37446598,103.7736063,103.7736063,670218,PETIR ROAD,HDB-BUKIT PANJANG,21354.75444,39607.06343,218 PETIR RD
0,58 STRATHMORE AVENUE HDB-QUEENSTOWN SINGAPORE 142058,58,HDB-QUEENSTOWN,1.29308496,103.8107889,103.8107889,142058,STRATHMORE AVENUE,HDB-QUEENSTOWN,25492.642340000002,30608.29522,58 STRATHMORE AVE
0,310 TAMPINES STREET 32 HDB-TAMPINES SINGAPORE 520310,310,HDB-TAMPINES,1.353463207,103.95711309999999,103.95711309999999,520310,TAMPINES STREET 32,HDB-TAMPINES,41776.93323,37284.95221,310 TAMPINES ST 32
0,662 YISHUN AVENUE 4 HDB-YISHUN SINGAPORE 760662,662,HDB-YISHUN,1.4205393240000002,103.84069009999999,103.84069009999999,760662,YISHUN AVENUE 4,HDB-YISHUN,28820.34684,44701.53872,662 YISHUN AVE 4
1,662 YISHUN AVENUE 4 PRAISELAND CHILD CARE AND LEARNING CENTRE SINGAPORE 760662,662,PRAISELAND CHILD CARE AND LEARNING CENTRE,1.4204727380000002,103.8405299,103.8405299,760662,YISHUN AVENUE 4,PRAISELAND CHILD CARE AND LEARNING CENTRE,28802.5173,44694.176,662 YISHUN AVE 4
0,894B WOODLANDS DRIVE 50 HDB-WOODLANDS SINGAPORE 731894,894B,HDB-WOODLANDS,1.436009439,103.7895075,103.7895075,731894,WOODLANDS DRIVE 50,HDB-WOODLANDS,23124.49324,46412.191660000004,894B WOODLANDS DR 50
1,894B WOODLANDS DRIVE 50 HDB PUBLIC SHELTERS SINGAPORE 731894,894B,HDB PUBLIC SHELTERS,1.4359998840000001,103.7895078,103.7895078,731894,WOODLANDS DRIVE 50,HDB PUBLIC SHELTERS,23124.52826,46411.135089999996,894B WOODLANDS DR 50
2,894B WOODLANDS DRIVE 50 APPLES & PENCILS EDUCATION PTE LTD SINGAPORE 731894,894B,APPLES & PENCILS EDUCATION PTE LTD,1.436009459,103.7897218,103.7897218,731894,WOODLANDS DRIVE 50,APPLES & PENCILS EDUCATION PTE LTD,23148.340809999998,46412.193439999995,894B WOODLANDS DR 50
0,128 RIVERVALE STREET RIVERVALE PLAINS SINGAPORE 540128,128,RIVERVALE PLAINS,1.390490496,103.9026885,103.9026885,540128,RIVERVALE STREET,RIVERVALE PLAINS,35719.9679,41379.00338,128 RIVERVALE ST
0,750 WOODLANDS AVENUE 4 HDB-WOODLANDS SINGAPORE 730750,750,HDB-WOODLANDS,1.444340363,103.79394909999999,103.79394909999999,730750,WOODLANDS AVENUE 4,HDB-WOODLANDS,23618.7956,47333.374560000004,750 WOODLANDS AVE 4
1,750 WOODLANDS AVENUE 4 MODERN MONTESSORI PRESCHOOL CENTRE SINGAPORE 730750,750,MODERN MONTESSORI PRESCHOOL CENTRE,1.444423026,103.79388370000001,103.79388370000001,730750,WOODLANDS AVENUE 4,MODERN MONTESSORI PRESCHOOL CENTRE,23611.51439,47342.51519,750 WOODLANDS AVE 4
0,326 TAMPINES STREET 32 HDB-TAMPINES SINGAPORE 520326,326,HDB-TAMPINES,1.352628551,103.95864449999999,103.95864449999999,520326,TAMPINES STREET 32,HDB-TAMPINES,41947.3711,37192.6687,326 TAMPINES ST 32
0,79 MARINE DRIVE MARINE DRIVE VIEW SINGAPORE 440079,79,MARINE DRIVE VIEW,1.301533134,103.90781199999999,103.90781199999999,440079,MARINE DRIVE,MARINE DRIVE VIEW,36290.44775,31542.562,79 MARINE DR
0,309 CANBERRA ROAD HDB-SEMBAWANG SINGAPORE 750309,309,HDB-SEMBAWANG,1.4467573459999998,103.8215624,103.8215624,750309,CANBERRA ROAD,HDB-SEMBAWANG,26691.7234,47600.59787,309 CANBERRA RD
1,309 CANBERRA ROAD PCF SPARKLETOTS PRESCHOOL @ GAMBAS BLK 309 (KN) SINGAPORE 750309,309,PCF SPARKLETOTS PRESCHOOL @ GAMBAS BLK 309 (KN),1.44675734,103.8215624,103.8215624,750309,CANBERRA ROAD,PCF SPARKLETOTS PRESCHOOL @ GAMBAS BLK 309 (KN),26691.72349,47600.59721,309 CANBERRA RD
0,805 CHAI CHEE ROAD PING-AN GARDENS SINGAPORE 460805,805,PING-AN GARDENS,1.324306049,103.92162540000001,103.92162540000001,460805,CHAI CHEE ROAD,PING-AN GARDENS,37827.66239,34060.726460000005,805 CHAI CHEE RD
0,103 SPOTTISWOODE PARK ROAD SPOTTISWOODE PARK ESTATE SINGAPORE 080103,103,SPOTTISWOODE PARK ESTATE,1.2746609690000001,103.8352798,103.8352798,080103,SPOTTISWOODE PARK ROAD,SPOTTISWOODE PARK ESTATE,28218.27118,28571.05443,103 SPOTTISWOODE PK RD
0,980 JURONG WEST STREET 93 HDB-JURONG WEST SINGAPORE 640980,980,HDB-JURONG WEST,1.339117748,103.6936715,103.6936715,640980,JURONG WEST STREET 93,HDB-JURONG WEST,12458.76005,35698.79593,980 JURONG WEST ST 93
0,82 STRATHMORE AVENUE HDB-QUEENSTOWN SINGAPORE 141082,82,HDB-QUEENSTOWN,1.2945452590000002,103.8087511,103.8087511,141082,STRATHMORE AVENUE,HDB-QUEENSTOWN,25265.85105,30769.76962,82 STRATHMORE AVE
1,82 STRATHMORE AVENUE HDB PUBLIC SHELTERS SINGAPORE 141082,82,HDB PUBLIC SHELTERS,1.2945249890000001,103.8087559,103.8087559,141082,STRATHMORE AVENUE,HDB PUBLIC SHELTERS,25266.38931,30767.52825,82 STRATHMORE AVE
2,82 STRATHMORE AVENUE MY FIRST SKOOL SINGAPORE 141082,82,MY FIRST SKOOL,1.2945452640000001,103.8087511,103.8087511,141082,STRATHMORE AVENUE,MY FIRST SKOOL,25265.8513,30769.7702,82 STRATHMORE AVE
0,588C ANG MO KIO STREET 52 PARK CENTRAL @ AMK SINGAPORE 563588,588C,PARK CENTRAL @ AMK,1.37183157,103.85367099999999,103.85367099999999,563588,ANG MO KIO STREET 52,PARK CENTRAL @ AMK,30264.97375,39315.69035,588C ANG MO KIO ST 52
0,106 LENGKONG TIGA KEMBANGAN GARDENS SINGAPORE 410106,106,KEMBANGAN GARDENS,1.325088459,103.9100088,103.9100088,410106,LENGKONG TIGA,KEMBANGAN GARDENS,36534.8478,34147.1984,106 LENGKONG TIGA
0,212B COMPASSVALE DRIVE COMPASSVALE PEARL SINGAPORE 542212,212B,COMPASSVALE PEARL,1.386185145,103.9005512,103.9005512,542212,COMPASSVALE DRIVE,COMPASSVALE PEARL,35482.12254,40902.932310000004,212B COMPASSVALE DR
0,112 YISHUN RING ROAD CHONG PANG VALE SINGAPORE 760112,112,CHONG PANG VALE,1.434168645,103.82905500000001,103.82905500000001,760112,YISHUN RING ROAD,CHONG PANG VALE,27525.52599,46208.59964,112 YISHUN RING RD
0,585 WOODLANDS DRIVE 16 HDB-WOODLANDS SINGAPORE 730585,585,HDB-WOODLANDS,1.429205974,103.7954083,103.7954083,730585,WOODLANDS DRIVE 16,HDB-WOODLANDS,23781.15448,45659.88676,585 WOODLANDS DR 16
1,585 WOODLANDS DRIVE 16 PCF SPARKLETOTS PRESCHOOL @ ADMIRALTY 585 (CC) SINGAPORE 730585,585,PCF SPARKLETOTS PRESCHOOL @ ADMIRALTY 585 (CC),1.4294155990000001,103.7953999,103.7953999,730585,WOODLANDS DRIVE 16,PCF SPARKLETOTS PRESCHOOL @ ADMIRALTY 585 (CC),23780.2166,45683.06611,585 WOODLANDS DR 16
0,669 HOUGANG AVENUE 8 HDB-HOUGANG SINGAPORE 530669,669,HDB-HOUGANG,1.373370225,103.88409940000001,103.88409940000001,530669,HOUGANG AVENUE 8,HDB-HOUGANG,33651.27879,39485.87735,669 HOUGANG AVE 8
0,420 FAJAR ROAD HDB-BUKIT PANJANG SINGAPORE 670420,420,HDB-BUKIT PANJANG,1.3846500069999998,103.76951729999999,103.76951729999999,670420,FAJAR ROAD,HDB-BUKIT PANJANG,20899.72885,40733.17396,420 FAJAR RD
0,350 UBI AVENUE 1 KAMPONG UBI VIEW SINGAPORE 400350,350,KAMPONG UBI VIEW,1.325804085,103.90129240000002,103.90129240000002,400350,UBI AVENUE 1,KAMPONG UBI VIEW,35564.79724,34226.30038,350 UBI AVE 1
0,122B SENGKANG EAST WAY RIVERVALE BANK SINGAPORE 542122,122B,RIVERVALE BANK,1.3871648980000002,103.9065344,103.9065344,542122,SENGKANG EAST WAY,RIVERVALE BANK,36147.98053,41011.28821,122B SENGKANG EAST WAY
0,703 WOODLANDS DRIVE 40 HDB-WOODLANDS SINGAPORE 730703,703,HDB-WOODLANDS,1.440956563,103.7965766,103.7965766,730703,WOODLANDS DRIVE 40,HDB-WOODLANDS,23911.18465,46959.20598,703 WOODLANDS DR 40
0,256 BISHAN STREET 22 HDB-BISHAN SINGAPORE 570256,256,HDB-BISHAN,1.361318448,103.8426838,103.8426838,570256,BISHAN STREET 22,HDB-BISHAN,29042.234439999997,38153.19522,256 BISHAN ST 22
1,256 BISHAN STREET 22 HDB PUBLIC SHELTERS SINGAPORE 570256,256,HDB PUBLIC SHELTERS,1.361318449,103.8426838,103.8426838,570256,BISHAN STREET 22,HDB PUBLIC SHELTERS,29042.23447,38153.19537,256 BISHAN ST 22
0,504 BEDOK NORTH STREET 3 KAKI BUKIT VILLE SINGAPORE 460504,504,KAKI BUKIT VILLE,1.331880003,103.9323894,103.9323894,460504,BEDOK NORTH STREET 3,KAKI BUKIT VILLE,39025.55468,34898.26194,504 BEDOK NTH ST 3
0,626 CHOA CHU KANG STREET 62 HDB-CHOA CHU KANG SINGAPORE 680626,626,HDB-CHOA CHU KANG,1.398320829,103.7458781,103.7458781,680626,CHOA CHU KANG STREET 62,HDB-CHOA CHU KANG,18269.04389,42244.90977,626 CHOA CHU KANG ST 62
1,626 CHOA CHU KANG STREET 62 HDB PUBLIC SHELTERS SINGAPORE 680626,626,HDB PUBLIC SHELTERS,1.398320205,103.7458801,103.7458801,680626,CHOA CHU KANG STREET 62,HDB PUBLIC SHELTERS,18269.270930000002,42244.84084,626 CHOA CHU KANG ST 62
0,547 ANG MO KIO AVENUE 10 HDB-ANG MO KIO SINGAPORE 560547,547,HDB-ANG MO KIO,1.374209517,103.8582097,103.8582097,560547,ANG MO KIO AVENUE 10,HDB-ANG MO KIO,30770.07185,39578.63647,547 ANG MO KIO AVE 10
0,195E PUNGGOL ROAD THE PERIWINKLE SINGAPORE 825195,195E,THE PERIWINKLE,1.4017179919999998,103.90717729999999,103.90717729999999,825195,PUNGGOL ROAD,THE PERIWINKLE,36219.468839999994,42620.49921,195E PUNGGOL RD
0,319 UBI AVENUE 1 KAMPUNG UBI ESTATE SINGAPORE 400319,319,KAMPUNG UBI ESTATE,1.328273258,103.9035943,103.9035943,400319,UBI AVENUE 1,KAMPUNG UBI ESTATE,35820.96808,34499.33618,319 UBI AVE 1
0,288 CHOA CHU KANG AVENUE 3 HDB-CHOA CHU KANG SINGAPORE 680288,288,HDB-CHOA CHU KANG,1.378938615,103.74102309999999,103.74102309999999,680288,CHOA CHU KANG AVENUE 3,HDB-CHOA CHU KANG,17728.67069,40101.74081,288 CHOA CHU KANG AVE 3
1,288 CHOA CHU KANG AVENUE 3 HDB PUBLIC SHELTERS SINGAPORE 680288,288,HDB PUBLIC SHELTERS,1.378938896,103.7410271,103.7410271,680288,CHOA CHU KANG AVENUE 3,HDB PUBLIC SHELTERS,17729.11336,40101.77177,288 CHOA CHU KANG AVE 3
0,277B COMPASSVALE LINK ASPELLA SINGAPORE 542277,277B,ASPELLA,1.3823366590000001,103.8945108,103.8945108,542277,COMPASSVALE LINK,ASPELLA,34809.9195,40477.36772,277B COMPASSVALE LINK
1,277B COMPASSVALE LINK PCF SPARKLETOTS PRESCHOOL @ SENGKANG CENTRAL BLK 277B (KN) SINGAPORE 542277,277B,PCF SPARKLETOTS PRESCHOOL @ SENGKANG CENTRAL BLK 277B (KN),1.382336657,103.8945108,103.8945108,542277,COMPASSVALE LINK,PCF SPARKLETOTS PRESCHOOL @ SENGKANG CENTRAL BLK 277B (KN),34809.92041,40477.367510000004,277B COMPASSVALE LINK
0,881 TAMPINES STREET 84 TAMPINES SPRING SINGAPORE 520881,881,TAMPINES SPRING,1.352311805,103.9327843,103.9327843,520881,TAMPINES STREET 84,TAMPINES SPRING,39069.413960000005,37157.51125,881 TAMPINES ST 84
0,133 SIMEI STREET 1 HDB-TAMPINES SINGAPORE 520133,133,HDB-TAMPINES,1.347313666,103.9556785,103.9556785,520133,SIMEI STREET 1,HDB-TAMPINES,41617.3145,36604.95771,133 SIMEI ST 1
0,89 TANGLIN HALT ROAD COMMONWEALTH VIEW SINGAPORE 141089,89,COMMONWEALTH VIEW,1.3012003540000001,103.79892190000001,103.79892190000001,141089,TANGLIN HALT ROAD,COMMONWEALTH VIEW,24171.95689,31505.668569999998,89 TANGLIN HALT RD
0,310 SHUNFU ROAD SHUNFU GARDENS SINGAPORE 570310,310,SHUNFU GARDENS,1.350851679,103.8386791,103.8386791,570310,SHUNFU ROAD,SHUNFU GARDENS,28596.568339999998,36995.83194,310 SHUNFU RD
0,296D CHOA CHU KANG AVENUE 2 HDB-CHOA CHU KANG SINGAPORE 684296,296D,HDB-CHOA CHU KANG,1.376623081,103.7430682,103.7430682,684296,CHOA CHU KANG AVENUE 2,HDB-CHOA CHU KANG,17956.25503,39845.69179,296 CHOA CHU KANG AVE 2
1,296C CHOA CHU KANG AVENUE 2 HDB-CHOA CHU KANG SINGAPORE 683296,296C,HDB-CHOA CHU KANG,1.37658461,103.74229720000001,103.74229720000001,683296,CHOA CHU KANG AVENUE 2,HDB-CHOA CHU KANG,17870.44381,39841.44102,296 CHOA CHU KANG AVE 2
2,296 CHOA CHU KANG AVENUE 2 HDB-CHOA CHU KANG SINGAPORE 680296,296,HDB-CHOA CHU KANG,1.37738338,103.7407814,103.7407814,680296,CHOA CHU KANG AVENUE 2,HDB-CHOA CHU KANG,17701.76482,39929.77165,296 CHOA CHU KANG AVE 2
3,296E CHOA CHU KANG AVENUE 2 HDB-CHOA CHU KANG SINGAPORE 685296,296E,HDB-CHOA CHU KANG,1.37691702,103.74304709999998,103.74304709999998,685296,CHOA CHU KANG AVENUE 2,HDB-CHOA CHU KANG,17953.9062,39878.19413,296 CHOA CHU KANG AVE 2
4,296A CHOA CHU KANG AVENUE 2 HDB-CHOA CHU KANG SINGAPORE 681296,296A,HDB-CHOA CHU KANG,1.377141549,103.7409433,103.7409433,681296,CHOA CHU KANG AVENUE 2,HDB-CHOA CHU KANG,17719.780169999998,39903.03046,296 CHOA CHU KANG AVE 2
5,296B CHOA CHU KANG AVENUE 2 HDB-CHOA CHU KANG SINGAPORE 682296,296B,HDB-CHOA CHU KANG,1.376847726,103.741509,103.741509,682296,CHOA CHU KANG AVENUE 2,HDB-CHOA CHU KANG,17782.736419999997,39870.53848,296 CHOA CHU KANG AVE 2
6,296 CHOA CHU KANG AVENUE 2 HDB PUBLIC SHELTERS SINGAPORE 680296,296,HDB PUBLIC SHELTERS,1.377415555,103.7407815,103.7407815,680296,CHOA CHU KANG AVENUE 2,HDB PUBLIC SHELTERS,17701.77689,39933.32932,296 CHOA CHU KANG AVE 2
0,857 WOODLANDS STREET 83 HDB-WOODLANDS SINGAPORE 730857,857,HDB-WOODLANDS,1.440261709,103.7940135,103.7940135,730857,WOODLANDS STREET 83,HDB-WOODLANDS,23625.95279,46882.37727,857 WOODLANDS ST 83
0,496D TAMPINES AVENUE 9 HDB-TAMPINES SINGAPORE 520496,496D,HDB-TAMPINES,1.3614981940000002,103.95012109999999,103.95012109999999,520496,TAMPINES AVENUE 9,HDB-TAMPINES,40998.76095,38173.38336,496D TAMPINES AVE 9
1,496D TAMPINES AVENUE 9 HDB PUBLIC SHELTERS SINGAPORE 520496,496D,HDB PUBLIC SHELTERS,1.361626114,103.94999179999999,103.94999179999999,520496,TAMPINES AVENUE 9,HDB PUBLIC SHELTERS,40984.37422,38187.52744,496D TAMPINES AVE 9
0,556 ANG MO KIO AVENUE 10 CHENG SAN PLACE SINGAPORE 560556,556,CHENG SAN PLACE,1.3720323630000002,103.8576254,103.8576254,560556,ANG MO KIO AVENUE 10,CHENG SAN PLACE,30705.049769999998,39337.89712,556 ANG MO KIO AVE 10
1,556 ANG MO KIO AVENUE 10 PCF SPARKLETOTS PRESCHOOL @ JALAN KAYU BLK 556 (KN) SINGAPORE 560556,556,PCF SPARKLETOTS PRESCHOOL @ JALAN KAYU BLK 556 (KN),1.3720323580000002,103.8576254,103.8576254,560556,ANG MO KIO AVENUE 10,PCF SPARKLETOTS PRESCHOOL @ JALAN KAYU BLK 556 (KN),30705.050410000003,39337.89661,556 ANG MO KIO AVE 10
0,395 TAMPINES AVENUE 7 HDB-TAMPINES SINGAPORE 520395,395,HDB-TAMPINES,1.3558637919999998,103.95604909999999,103.95604909999999,520395,TAMPINES AVENUE 7,HDB-TAMPINES,41658.513739999995,37550.39129,395 TAMPINES AVE 7
0,50A DORSET ROAD SINGAPORE 211050,50A,NIL,1.312724567,103.85037609999999,103.85037609999999,211050,DORSET ROAD,50A DORSET ROAD SINGAPORE 211050,29898.33575,32779.93709,50 DORSET RD
1,50 DORSET ROAD FARRER PARK GARDENS SINGAPORE 210050,50,FARRER PARK GARDENS,1.313154788,103.8509083,103.8509083,210050,DORSET ROAD,FARRER PARK GARDENS,29957.565360000004,32827.5091,50 DORSET RD
2,50 DORSET ROAD,50,NIL,1.313130993,103.8508679,103.8508679,NIL,DORSET ROAD,50 DORSET ROAD,29953.06659,32824.878,50 DORSET RD
3,50 DORSET ROAD PCF SPARKLETOTS PRESCHOOL-TAI PEI@MOULMEIN-CAIRNHILL 50 SINGAPORE 210050,50,PCF SPARKLETOTS PRESCHOOL-TAI PEI@MOULMEIN-CAIRNHILL 50,1.313130993,103.8508679,103.8508679,210050,DORSET ROAD,PCF SPARKLETOTS PRESCHOOL-TAI PEI@MOULMEIN-CAIRNHILL 50,29953.06659,32824.878,50 DORSET RD
0,180B MARSILING ROAD MARSILING HEIGHTS SINGAPORE 732180,180B,MARSILING HEIGHTS,1.439056598,103.7783498,103.7783498,732180,MARSILING ROAD,MARSILING HEIGHTS,21882.81555,46749.1581,180B MARSILING RD
0,43 LENGKOK BAHRU HDB-BUKIT MERAH SINGAPORE 150043,43,HDB-BUKIT MERAH,1.286955402,103.81100079999999,103.81100079999999,150043,LENGKOK BAHRU,HDB-BUKIT MERAH,25516.21374,29930.520089999998,43 LENGKOK BAHRU
0,269C PUNGGOL FIELD PUNGGOL SAPPHIRE SINGAPORE 823269,269C,PUNGGOL SAPPHIRE,1.4036520330000002,103.8985316,103.8985316,823269,PUNGGOL FIELD,PUNGGOL SAPPHIRE,35257.318289999996,42834.32717,269C PUNGGOL FIELD
0,711 HOUGANG AVENUE 2 HDB-HOUGANG SINGAPORE 530711,711,HDB-HOUGANG,1.366338632,103.8877752,103.8877752,530711,HOUGANG AVENUE 2,HDB-HOUGANG,34060.36975,38708.36828,711 HOUGANG AVE 2
0,213 BISHAN STREET 23 HDB-BISHAN SINGAPORE 570213,213,HDB-BISHAN,1.3571782209999999,103.848153,103.848153,570213,BISHAN STREET 23,HDB-BISHAN,29650.89662,37695.39312,213 BISHAN ST 23
1,213 BISHAN STREET 23,213,NIL,1.35717823,103.848153,103.848153,NIL,BISHAN STREET 23,213 BISHAN STREET 23,29650.89511,37695.394089999994,213 BISHAN ST 23
2,213 BISHAN STREET 23 HDB PUBLIC SHELTERS SINGAPORE 570213,213,HDB PUBLIC SHELTERS,1.357178239,103.84815290000002,103.84815290000002,570213,BISHAN STREET 23,HDB PUBLIC SHELTERS,29650.89441,37695.39509,213 BISHAN ST 23
0,132 YISHUN STREET 11 HDB-YISHUN SINGAPORE 760132,132,HDB-YISHUN,1.432778464,103.831224,103.831224,760132,YISHUN STREET 11,HDB-YISHUN,27766.899910000004,46054.88005,132 YISHUN ST 11
0,826 YISHUN STREET 81 HDB-YISHUN SINGAPORE 760826,826,HDB-YISHUN,1.4141741030000001,103.8324542,103.8324542,760826,YISHUN STREET 81,HDB-YISHUN,27903.805989999997,43997.70349,826 YISHUN ST 81
0,246 JURONG EAST STREET 24 HDB-JURONG EAST SINGAPORE 600246,246,HDB-JURONG EAST,1.3417765879999999,103.7400573,103.7400573,600246,JURONG EAST STREET 24,HDB-JURONG EAST,17621.01976,35992.552039999995,246 JURONG EAST ST 24
0,128 POTONG PASIR AVENUE 1 HDB-POTONG PASIR SINGAPORE 350128,128,HDB-POTONG PASIR,1.334803977,103.8657878,103.8657878,350128,POTONG PASIR AVENUE 1,HDB-POTONG PASIR,31613.48788,35221.38238,128 POTONG PASIR AVE 1
0,180B RIVERVALE CRESCENT RIVERVALE ARC SINGAPORE 542180,180B,RIVERVALE ARC,1.389947187,103.90944990000001,103.90944990000001,542180,RIVERVALE CRESCENT,RIVERVALE ARC,36472.4238,41318.95012,180B RIVERVALE CRES
0,542 ANG MO KIO AVENUE 10 CHENG SAN GREEN SINGAPORE 560542,542,CHENG SAN GREEN,1.3747384130000002,103.85587679999999,103.85587679999999,560542,ANG MO KIO AVENUE 10,CHENG SAN GREEN,30510.44828,39637.11651,542 ANG MO KIO AVE 10
0,417 BUKIT BATOK WEST AVENUE 4 HDB-BUKIT BATOK SINGAPORE 650417,417,HDB-BUKIT BATOK,1.362890991,103.7465392,103.7465392,650417,BUKIT BATOK WEST AVENUE 4,HDB-BUKIT BATOK,18342.479040000002,38327.251019999996,417 BT BATOK WEST AVE 4
1,417 BUKIT BATOK WEST AVENUE 4 DBS BUKIT BATOK WEST AVENUE 4 SINGAPORE 650417,417,DBS BUKIT BATOK WEST AVENUE 4,1.3629029330000002,103.7464834,103.7464834,650417,BUKIT BATOK WEST AVENUE 4,DBS BUKIT BATOK WEST AVENUE 4,18336.2689,38328.571789999995,417 BT BATOK WEST AVE 4
0,415 SERANGOON CENTRAL HDB-SERANGOON ESTATE SINGAPORE 550415,415,HDB-SERANGOON ESTATE,1.3497965269999999,103.8744996,103.8744996,550415,SERANGOON CENTRAL,HDB-SERANGOON ESTATE,32582.98435,36879.19672,415 SERANGOON CTRL
0,270A SENGKANG CENTRAL TIVELA SINGAPORE 541270,270A,TIVELA,1.385751978,103.894255,103.894255,541270,SENGKANG CENTRAL,TIVELA,34781.445230000005,40855.01582,270A SENGKANG CTRL
0,214 BEDOK NORTH STREET 1 BEDOK TOWN CENTRE SINGAPORE 460214,214,BEDOK TOWN CENTRE,1.325875651,103.93249300000001,103.93249300000001,460214,BEDOK NORTH STREET 1,BEDOK TOWN CENTRE,39037.11941,34234.330969999995,214 BEDOK NTH ST 1
0,127 SIMEI STREET 1 HDB-TAMPINES SINGAPORE 520127,127,HDB-TAMPINES,1.346584244,103.95431640000001,103.95431640000001,520127,SIMEI STREET 1,HDB-TAMPINES,41465.73438,36524.2942,127 SIMEI ST 1
0,235 CHOA CHU KANG CENTRAL HDB-CHOA CHU KANG SINGAPORE 680235,235,HDB-CHOA CHU KANG,1.379756644,103.7487492,103.7487492,680235,CHOA CHU KANG CENTRAL,HDB-CHOA CHU KANG,18588.48716,40192.16238,235 CHOA CHU KANG CTRL
1,235 CHOA CHU KANG CENTRAL HDB PUBLIC SHELTERS SINGAPORE 680235,235,HDB PUBLIC SHELTERS,1.379782277,103.74875959999999,103.74875959999999,680235,CHOA CHU KANG CENTRAL,HDB PUBLIC SHELTERS,18589.64836,40194.9968,235 CHOA CHU KANG CTRL
0,788C WOODLANDS CRESCENT HDB-WOODLANDS SINGAPORE 733788,788C,HDB-WOODLANDS,1.4438717980000002,103.8018334,103.8018334,733788,WOODLANDS CRESCENT,HDB-WOODLANDS,24496.19655,47281.54932,788C WOODLANDS CRES
0,22C HAVELOCK ROAD SINGAPORE 164022,22C,NIL,1.2887848240000002,103.82826850000001,103.82826850000001,164022,HAVELOCK ROAD,22C HAVELOCK ROAD SINGAPORE 164022,27437.9652,30132.797730000002,22 HAVELOCK RD
1,22 HAVELOCK ROAD HDB-BUKIT MERAH SINGAPORE 160022,22,HDB-BUKIT MERAH,1.2887460370000001,103.82882420000001,103.82882420000001,160022,HAVELOCK ROAD,HDB-BUKIT MERAH,27499.81277,30128.508789999996,22 HAVELOCK RD
2,22 HAVELOCK ROAD TOWN VETS ANIMAL CLINIC SINGAPORE 160022,22,TOWN VETS ANIMAL CLINIC,1.288596672,103.82917629999999,103.82917629999999,160022,HAVELOCK ROAD,TOWN VETS ANIMAL CLINIC,27539.00203,30111.99276,22 HAVELOCK RD
3,22B HAVELOCK ROAD HAVELOCK ROAD COOKED FOOD CENTRE SINGAPORE 162022,22B,HAVELOCK ROAD COOKED FOOD CENTRE,1.287747355,103.82953140000001,103.82953140000001,162022,HAVELOCK ROAD,HAVELOCK ROAD COOKED FOOD CENTRE,27578.524139999998,30018.079530000003,22 HAVELOCK RD
4,22A HAVELOCK ROAD HAVELOCK ROAD COOKED FOOD CENTRE SINGAPORE 161022,22A,HAVELOCK ROAD COOKED FOOD CENTRE,1.287931452,103.8296348,103.8296348,161022,HAVELOCK ROAD,HAVELOCK ROAD COOKED FOOD CENTRE,27590.03003,30038.43608,22 HAVELOCK RD
0,474 TAMPINES STREET 43 HDB-TAMPINES SINGAPORE 520474,474,HDB-TAMPINES,1.359872992,103.9527876,103.9527876,520474,TAMPINES STREET 43,HDB-TAMPINES,41295.519980000005,37993.690910000005,474 TAMPINES ST 43
0,14 BEDOK SOUTH AVENUE 2 HDB-BEDOK SINGAPORE 460014,14,HDB-BEDOK,1.321361191,103.9361854,103.9361854,460014,BEDOK SOUTH AVENUE 2,HDB-BEDOK,39448.06359,33735.161089999994,14 BEDOK STH AVE 2
0,265 BOON LAY DRIVE BOON LAY CREST SINGAPORE 640265,265,BOON LAY CREST,1.34567943,103.70659930000001,103.70659930000001,640265,BOON LAY DRIVE,BOON LAY CREST,13897.52441,36424.27673,265 BOON LAY DR
0,303 ANG MO KIO AVENUE 1 TECK GHEE VISTA SINGAPORE 560303,303,TECK GHEE VISTA,1.366649205,103.8452546,103.8452546,560303,ANG MO KIO AVENUE 1,TECK GHEE VISTA,29328.33148,38742.64444,303 ANG MO KIO AVE 1
0,479 PASIR RIS DRIVE 4 HDB-PASIR RIS SINGAPORE 510479,479,HDB-PASIR RIS,1.3751771469999998,103.95920720000001,103.95920720000001,510479,PASIR RIS DRIVE 4,HDB-PASIR RIS,42009.86298,39685.98689,479 PASIR RIS DR 4
0,5 UPPER ALJUNIED LANE JOO SENG GREEN SINGAPORE 360005,5,JOO SENG GREEN,1.33372866,103.8798985,103.8798985,360005,UPPER ALJUNIED LANE,JOO SENG GREEN,33183.85538,35102.50445,5 UPP ALJUNIED LANE
0,110 CLEMENTI STREET 13 SUNSET WAY RESIDENCE SINGAPORE 120110,110,SUNSET WAY RESIDENCE,1.322845078,103.7708988,103.7708988,120110,CLEMENTI STREET 13,SUNSET WAY RESIDENCE,21053.29703,33899.092189999996,110 CLEMENTI ST 13
0,104 JURONG EAST STREET 13 JURONG EAST VILLE SINGAPORE 600104,104,JURONG EAST VILLE,1.336584653,103.7376233,103.7376233,600104,JURONG EAST STREET 13,JURONG EAST VILLE,17350.12473,35418.46407,104 JURONG EAST ST 13
0,347 WOODLANDS AVENUE 3 HDB-WOODLANDS SINGAPORE 730347,347,HDB-WOODLANDS,1.4331914030000001,103.7815949,103.7815949,730347,WOODLANDS AVENUE 3,HDB-WOODLANDS,22243.93675,46100.60568,347 WOODLANDS AVE 3
1,347 WOODLANDS AVENUE 3 MY FIRST SKOOL SINGAPORE 730347,347,MY FIRST SKOOL,1.433178321,103.7815949,103.7815949,730347,WOODLANDS AVENUE 3,MY FIRST SKOOL,22243.9363,46099.15911,347 WOODLANDS AVE 3
0,892 TAMPINES AVENUE 8 HDB-TAMPINES SINGAPORE 520892,892,HDB-TAMPINES,1.349012829,103.9292428,103.9292428,520892,TAMPINES AVENUE 8,HDB-TAMPINES,38675.30244,36792.71095,892 TAMPINES AVE 8
0,335 UBI AVENUE 1 KAMPONG UBI VIEW SINGAPORE 400335,335,KAMPONG UBI VIEW,1.326041655,103.9028293,103.9028293,400335,UBI AVENUE 1,KAMPONG UBI VIEW,35735.83677,34252.57445,335 UBI AVE 1
0,10 EUNOS CRESCENT HDB-JALAN EUNOS SINGAPORE 400010,10,HDB-JALAN EUNOS,1.3222865590000001,103.9027205,103.9027205,400010,EUNOS CRESCENT,HDB-JALAN EUNOS,35723.74641,33837.35446,10 EUNOS CRES
0,260 TAMPINES STREET 21 HDB-TAMPINES SINGAPORE 520260,260,HDB-TAMPINES,1.35464006,103.95010079999999,103.95010079999999,520260,TAMPINES STREET 21,HDB-TAMPINES,40996.53202,37415.044180000004,260 TAMPINES ST 21
0,391 TAMPINES AVENUE 7 HDB-TAMPINES SINGAPORE 520391,391,HDB-TAMPINES,1.355631541,103.9579533,103.9579533,520391,TAMPINES AVENUE 7,HDB-TAMPINES,41870.42425,37524.72086,391 TAMPINES AVE 7
0,107 PASIR RIS STREET 12 HDB-PASIR RIS SINGAPORE 510107,107,HDB-PASIR RIS,1.367509667,103.9575189,103.9575189,510107,PASIR RIS STREET 12,HDB-PASIR RIS,41822.01788,38838.14414,107 PASIR RIS ST 12
0,151 SIMEI STREET 1 HDB-TAMPINES SINGAPORE 520151,151,HDB-TAMPINES,1.345754827,103.9572689,103.9572689,520151,SIMEI STREET 1,HDB-TAMPINES,41794.31253,36432.597760000004,151 SIMEI ST 1
0,441 JURONG WEST AVENUE 1 HDB-JURONG WEST SINGAPORE 640441,441,HDB-JURONG WEST,1.351327315,103.72038309999999,103.72038309999999,640441,JURONG WEST AVENUE 1,HDB-JURONG WEST,15431.547509999999,37048.71695,441 JURONG WEST AVE 1
0,9 REDHILL CLOSE HDB-BUKIT MERAH SINGAPORE 151009,9,HDB-BUKIT MERAH,1.28494012,103.81641,103.81641,151009,REDHILL CLOSE,HDB-BUKIT MERAH,26118.21718,29707.675939999997,9 REDHILL CL
0,375 HOUGANG STREET 31 HDB-HOUGANG SINGAPORE 530375,375,HDB-HOUGANG,1.363158279,103.8895552,103.8895552,530375,HOUGANG STREET 31,HDB-HOUGANG,34258.46902,38356.70543,375 HOUGANG ST 31
0,82 MACPHERSON LANE MACPHERSON VIEW SINGAPORE 360082,82,MACPHERSON VIEW,1.332283325,103.88562009999998,103.88562009999998,360082,MACPHERSON LANE,MACPHERSON VIEW,33820.61621,34942.69949,82 MACPHERSON LANE
0,927 HOUGANG STREET 91 HDB-HOUGANG SINGAPORE 530927,927,HDB-HOUGANG,1.376622658,103.8807505,103.8807505,530927,HOUGANG STREET 91,HDB-HOUGANG,33278.58614,39845.50734,927 HOUGANG ST 91
1,927 HOUGANG STREET 91 HDB PUBLIC SHELTERS SINGAPORE 530927,927,HDB PUBLIC SHELTERS,1.376623353,103.88079609999998,103.88079609999998,530927,HOUGANG STREET 91,HDB PUBLIC SHELTERS,33283.655210000004,39845.584310000006,927 HOUGANG ST 91
2,927 HOUGANG STREET 91 KNOWLEDGE PARK ACADEMY PTE LTD SINGAPORE 530927,927,KNOWLEDGE PARK ACADEMY PTE LTD,1.376622657,103.8807505,103.8807505,530927,HOUGANG STREET 91,KNOWLEDGE PARK ACADEMY PTE LTD,33278.58621,39845.50719,927 HOUGANG ST 91
0,310C PUNGGOL WALK WATERWAY TERRACES II SINGAPORE 823310,310C,WATERWAY TERRACES II,1.409710961,103.89989840000001,103.89989840000001,823310,PUNGGOL WALK,WATERWAY TERRACES II,35409.403589999994,43504.29761,310C PUNGGOL WALK
0,285B TOH GUAN ROAD HDB-JURONG EAST SINGAPORE 602285,285B,HDB-JURONG EAST,1.338423949,103.74685490000002,103.74685490000002,602285,TOH GUAN ROAD,HDB-JURONG EAST,18377.506840000002,35621.806169999996,285B TOH GUAN RD
0,355 TAMPINES STREET 33 HDB-TAMPINES SINGAPORE 520355,355,HDB-TAMPINES,1.355050591,103.9616,103.9616,520355,TAMPINES STREET 33,HDB-TAMPINES,42276.26295,37460.50346,355 TAMPINES ST 33
1,355 TAMPINES STREET 33 CARPE DIEM YOUNG HEARTS PTE. LTD. SINGAPORE 520355,355,CARPE DIEM YOUNG HEARTS PTE. LTD.,1.355050584,103.9616,103.9616,520355,TAMPINES STREET 33,CARPE DIEM YOUNG HEARTS PTE. LTD.,42276.26319,37460.5027,355 TAMPINES ST 33
0,390 YISHUN AVENUE 6 HDB-YISHUN SINGAPORE 760390,390,HDB-YISHUN,1.429212793,103.84840390000001,103.84840390000001,760390,YISHUN AVENUE 6,HDB-YISHUN,29678.76735,45660.61144,390 YISHUN AVE 6
0,122 GEYLANG EAST CENTRAL HDB-GEYLANG EAST SINGAPORE 380122,122,HDB-GEYLANG EAST,1.317679503,103.88497149999999,103.88497149999999,380122,GEYLANG EAST CENTRAL,HDB-GEYLANG EAST,33748.47208,33327.881519999995,122 GEYLANG EAST CTRL
1,122 GEYLANG EAST CENTRAL CHRISTALITE STUDENT CARE CENTRE SINGAPORE 380122,122,CHRISTALITE STUDENT CARE CENTRE,1.3176795079999999,103.88497159999999,103.88497159999999,380122,GEYLANG EAST CENTRAL,CHRISTALITE STUDENT CARE CENTRE,33748.47301,33327.8821,122 GEYLANG EAST CTRL
0,410 TAMPINES STREET 41 SUN PLAZA VIEW SINGAPORE 520410,410,SUN PLAZA VIEW,1.3587828830000002,103.9460781,103.9460781,520410,TAMPINES STREET 41,SUN PLAZA VIEW,40548.83836,37873.1161,410 TAMPINES ST 41
0,130 BUKIT MERAH VIEW BUKIT MERAH VIEW SINGAPORE 150130,130,BUKIT MERAH VIEW,1.284587128,103.8243603,103.8243603,150130,BUKIT MERAH VIEW,BUKIT MERAH VIEW,27003.019989999997,29668.639410000003,130 BT MERAH VIEW
0,517 CHOA CHU KANG STREET 51 HDB-CHOA CHU KANG SINGAPORE 680517,517,HDB-CHOA CHU KANG,1.391072228,103.7428974,103.7428974,680517,CHOA CHU KANG STREET 51,HDB-CHOA CHU KANG,17937.302880000003,41443.40784,517 CHOA CHU KANG ST 51
1,517 CHOA CHU KANG STREET 51 HDB PUBLIC SHELTERS SINGAPORE 680517,517,HDB PUBLIC SHELTERS,1.3910698869999998,103.7428957,103.7428957,680517,CHOA CHU KANG STREET 51,HDB PUBLIC SHELTERS,17937.11867,41443.14898,517 CHOA CHU KANG ST 51
0,18 TECK WHYE LANE TECK WHYE HEIGHTS III SINGAPORE 680018,18,TECK WHYE HEIGHTS III,1.3782976880000002,103.7540714,103.7540714,680018,TECK WHYE LANE,TECK WHYE HEIGHTS III,19180.77676,40030.817930000005,18 TECK WHYE LANE
0,570B WOODLANDS AVENUE 1 CHAMPIONS COURT SINGAPORE 732570,570B,CHAMPIONS COURT,1.431063955,103.79045409999999,103.79045409999999,732570,WOODLANDS AVENUE 1,CHAMPIONS COURT,23229.82361,45865.34272,570B WOODLANDS AVE 1
1,570B WOODLANDS AVENUE 1 DBS NTUC WOODLANDS AVENUE 1 SINGAPORE 732570,570B,DBS NTUC WOODLANDS AVENUE 1,1.431063955,103.79045409999999,103.79045409999999,732570,WOODLANDS AVENUE 1,DBS NTUC WOODLANDS AVENUE 1,23229.82361,45865.34269,570B WOODLANDS AVE 1
2,570B WOODLANDS AVENUE 1 OCBC WOODLANDS AVE 1 - FAIRPRICE SINGAPORE 732570,570B,OCBC WOODLANDS AVE 1 - FAIRPRICE,1.431063955,103.79045409999999,103.79045409999999,732570,WOODLANDS AVENUE 1,OCBC WOODLANDS AVE 1 - FAIRPRICE,23229.82361,45865.34269,570B WOODLANDS AVE 1
0,296 YISHUN STREET 20 HDB-YISHUN SINGAPORE 760296,296,HDB-YISHUN,1.435392246,103.83550100000001,103.83550100000001,760296,YISHUN STREET 20,HDB-YISHUN,28242.868280000002,46343.89888,296 YISHUN ST 20
0,210 BUKIT BATOK STREET 21 HDB-BUKIT BATOK SINGAPORE 650210,210,HDB-BUKIT BATOK,1.345480082,103.7499561,103.7499561,650210,BUKIT BATOK STREET 21,HDB-BUKIT BATOK,18722.669009999998,36402.02613,210 BT BATOK ST 21
0,651 YISHUN AVENUE 4 NEE SOON CENTRAL VIEW SINGAPORE 760651,651,NEE SOON CENTRAL VIEW,1.423365101,103.83910350000001,103.83910350000001,760651,YISHUN AVENUE 4,NEE SOON CENTRAL VIEW,28643.78022,45013.99841,651 YISHUN AVE 4
0,520 JELAPANG ROAD PANGSHAN VALLEY SINGAPORE 670520,520,PANGSHAN VALLEY,1.386467579,103.76650759999998,103.76650759999998,670520,JELAPANG ROAD,PANGSHAN VALLEY,20564.80044,40934.161210000006,520 JELAPANG RD
0,405B FERNVALE LANE FERN SPRING SINGAPORE 792405,405B,FERN SPRING,1.389002004,103.8736702,103.8736702,792405,FERNVALE LANE,FERN SPRING,32490.61155,41214.338339999995,405B FERNVALE LANE
1,405B FERNVALE LANE SMARTIE COTTAGE SINGAPORE 792405,405B,SMARTIE COTTAGE,1.388997576,103.8736702,103.8736702,792405,FERNVALE LANE,SMARTIE COTTAGE,32490.612610000004,41213.84879,405B FERNVALE LANE
0,612 ELIAS ROAD HDB-PASIR RIS SINGAPORE 510612,612,HDB-PASIR RIS,1.374629851,103.942021,103.942021,510612,ELIAS ROAD,HDB-PASIR RIS,40097.2474,39625.37562,612 ELIAS RD
1,612 ELIAS ROAD HDB PUBLIC SHELTERS SINGAPORE 510612,612,HDB PUBLIC SHELTERS,1.374627225,103.9420235,103.9420235,510612,ELIAS ROAD,HDB PUBLIC SHELTERS,40097.52541,39625.085289999995,612 ELIAS RD
0,109A DEPOT ROAD DEPOT HEIGHTS SINGAPORE 101109,109A,DEPOT HEIGHTS,1.280957713,103.8094402,103.8094402,101109,DEPOT ROAD,DEPOT HEIGHTS,25342.52558,29267.328110000002,109A DEPOT RD
0,206D COMPASSVALE LANE COMPASSVALE PLACE SINGAPORE 544206,206D,COMPASSVALE PLACE,1.386967719,103.8972601,103.8972601,544206,COMPASSVALE LANE,COMPASSVALE PLACE,35115.863139999994,40989.455239999996,206D COMPASSVALE LANE
0,411B FERNVALE ROAD CORAL SPRING SINGAPORE 792411,411B,CORAL SPRING,1.3901626180000002,103.8770562,103.8770562,792411,FERNVALE ROAD,CORAL SPRING,32867.42697,41342.67998,411B FERNVALE RD
0,786D WOODLANDS DRIVE 60 HDB-WOODLANDS SINGAPORE 734786,786D,HDB-WOODLANDS,1.446419125,103.8010275,103.8010275,734786,WOODLANDS DRIVE 60,HDB-WOODLANDS,24406.51003,47563.22127,786D WOODLANDS DR 60
0,104 BEDOK RESERVOIR ROAD EUNOS VISTA SINGAPORE 470104,104,EUNOS VISTA,1.329245367,103.90992370000001,103.90992370000001,470104,BEDOK RESERVOIR ROAD,EUNOS VISTA,36525.36856,34606.848,104 BEDOK RESERVOIR RD
0,10 JALAN KUKOH CHIN SWEE VIEW SINGAPORE 162010,10,CHIN SWEE VIEW,1.286973834,103.83907579999999,103.83907579999999,162010,JALAN KUKOH,CHIN SWEE VIEW,28640.7329,29932.54805,10 JLN KUKOH
0,538 JURONG WEST AVENUE 1 HDB-JURONG WEST SINGAPORE 640538,538,HDB-JURONG WEST,1.349993899,103.715473,103.715473,640538,JURONG WEST AVENUE 1,HDB-JURONG WEST,14885.10204,36901.300189999994,538 JURONG WEST AVE 1
0,352 TAMPINES STREET 33 HDB-TAMPINES SINGAPORE 520352,352,HDB-TAMPINES,1.354165275,103.9624426,103.9624426,520352,TAMPINES STREET 33,HDB-TAMPINES,42370.04118,37362.61447,352 TAMPINES ST 33
0,370 WOODLANDS AVENUE 1 HDB-WOODLANDS SINGAPORE 730370,370,HDB-WOODLANDS,1.432542705,103.7873877,103.7873877,730370,WOODLANDS AVENUE 1,HDB-WOODLANDS,22888.5886,46028.86214,370 WOODLANDS AVE 1
0,314 TAMPINES STREET 33 HDB-TAMPINES SINGAPORE 520314,314,HDB-TAMPINES,1.352217026,103.9571261,103.9571261,520314,TAMPINES STREET 33,HDB-TAMPINES,41778.383760000004,37147.15564,314 TAMPINES ST 33
0,808 TAMPINES AVENUE 4 TAMPINES POLYVIEW SINGAPORE 520808,808,TAMPINES POLYVIEW,1.3464948380000001,103.9360476,103.9360476,520808,TAMPINES AVENUE 4,TAMPINES POLYVIEW,39432.61739,36514.3149,808 TAMPINES AVE 4
0,602 WOODLANDS DRIVE 42 HDB-WOODLANDS SINGAPORE 730602,602,HDB-WOODLANDS,1.4382174159999999,103.7963915,103.7963915,730602,WOODLANDS DRIVE 42,HDB-WOODLANDS,23890.58254,46656.32516,602 WOODLANDS DR 42
0,271C PUNGGOL WALK PUNGGOL RESIDENCES SINGAPORE 823271,271C,PUNGGOL RESIDENCES,1.403941659,103.9010343,103.9010343,823271,PUNGGOL WALK,PUNGGOL RESIDENCES,35535.83786,42866.360539999994,271C PUNGGOL WALK
0,37 TANGLIN HALT ROAD TANGLIN HALT GREEN SINGAPORE 140037,37,TANGLIN HALT GREEN,1.297772317,103.7980171,103.7980171,140037,TANGLIN HALT ROAD,TANGLIN HALT GREEN,24071.26197,31126.615260000002,37 TANGLIN HALT RD
0,401 CHOA CHU KANG AVENUE 3 HDB-CHOA CHU KANG SINGAPORE 680401,401,HDB-CHOA CHU KANG,1.379692642,103.7397607,103.7397607,680401,CHOA CHU KANG AVENUE 3,HDB-CHOA CHU KANG,17588.17485,40185.12287,401 CHOA CHU KANG AVE 3
0,301 JURONG EAST STREET 32 HONG KAH EAST GARDEN SINGAPORE 600301,301,HONG KAH EAST GARDEN,1.34404145,103.7355001,103.7355001,600301,JURONG EAST STREET 32,HONG KAH EAST GARDEN,17113.86505,36243.00898,301 JURONG EAST ST 32
0,795A YISHUN RING ROAD KHATIB VALE SINGAPORE 761795,795A,KHATIB VALE,1.419411849,103.8328413,103.8328413,761795,YISHUN RING ROAD,KHATIB VALE,27946.89074,44576.86698,795A YISHUN RING RD
0,41 HOLLAND DRIVE HDB-QUEENSTOWN SINGAPORE 270041,41,HDB-QUEENSTOWN,1.307620049,103.7934635,103.7934635,270041,HOLLAND DRIVE,HDB-QUEENSTOWN,23564.50364,32215.534480000002,41 HOLLAND DR
0,633 VEERASAMY ROAD ROWELL COURT SINGAPORE 200633,633,ROWELL COURT,1.3057066959999999,103.85494320000001,103.85494320000001,200633,VEERASAMY ROAD,ROWELL COURT,30406.62585,32003.940880000002,633 VEERASAMY RD
1,633 VEERASAMY ROAD LAVENDER MEADOWS ACADEMY PTE. LTD. SINGAPORE 200633,633,LAVENDER MEADOWS ACADEMY PTE. LTD.,1.305706697,103.8549433,103.8549433,200633,VEERASAMY ROAD,LAVENDER MEADOWS ACADEMY PTE. LTD.,30406.6267,32003.941000000003,633 VEERASAMY RD
0,5 BEDOK SOUTH AVENUE 2 HDB-BEDOK SINGAPORE 460005,5,HDB-BEDOK,1.322191579,103.9343993,103.9343993,460005,BEDOK SOUTH AVENUE 2,HDB-BEDOK,39249.28039,33826.97312,5 BEDOK STH AVE 2
0,347B YISHUN AVENUE 11 ADORA GREEN SINGAPORE 762347,347B,ADORA GREEN,1.427495093,103.8423771,103.8423771,762347,YISHUN AVENUE 11,ADORA GREEN,29008.08365,45470.67337,347B YISHUN AVE 11
0,2A BOON TIONG ROAD BOON TIONG ARCADIA SINGAPORE 164002,2A,BOON TIONG ARCADIA,1.286529621,103.8331631,103.8331631,164002,BOON TIONG ROAD,BOON TIONG ARCADIA,27982.695069999998,29883.4285,2A BOON TIONG RD
0,246A BISHAN STREET 22 SINGAPORE 571246,246A,NIL,1.3609443319999999,103.84367900000001,103.84367900000001,571246,BISHAN STREET 22,246A BISHAN STREET 22 SINGAPORE 571246,29152.99459,38111.82785,246 BISHAN ST 22
1,246 BISHAN STREET 22 HDB-BISHAN SINGAPORE 570246,246,HDB-BISHAN,1.3606741619999998,103.8433536,103.8433536,570246,BISHAN STREET 22,HDB-BISHAN,29116.783880000003,38081.95365,246 BISHAN ST 22
2,246 BISHAN STREET 22 HDB PUBLIC SHELTERS SINGAPORE 570246,246,HDB PUBLIC SHELTERS,1.3606610069999998,103.8433666,103.8433666,570246,BISHAN STREET 22,HDB PUBLIC SHELTERS,29118.22987,38080.49912,246 BISHAN ST 22
0,35 CIRCUIT ROAD HDB-MACPHERSON SINGAPORE 370035,35,HDB-MACPHERSON,1.329158997,103.8860103,103.8860103,370035,CIRCUIT ROAD,HDB-MACPHERSON,33864.050489999994,34597.22805,35 CIRCUIT RD
0,252 HOUGANG AVENUE 3 HDB-HOUGANG SINGAPORE 530252,252,HDB-HOUGANG,1.360165215,103.8927117,103.8927117,530252,HOUGANG AVENUE 3,HDB-HOUGANG,34609.75775,38025.75593,252 HOUGANG AVE 3
0,611 JURONG WEST STREET 65 HDB-JURONG WEST SINGAPORE 640611,611,HDB-JURONG WEST,1.338906189,103.7007513,103.7007513,640611,JURONG WEST STREET 65,HDB-JURONG WEST,13246.671390000001,35675.35895,611 JURONG WEST ST 65
0,375 CLEMENTI AVENUE 4 HDB-CLEMENTI SINGAPORE 120375,375,HDB-CLEMENTI,1.318492987,103.76670159999999,103.76670159999999,120375,CLEMENTI AVENUE 4,HDB-CLEMENTI,20586.185709999998,33417.87214,375 CLEMENTI AVE 4
1,375 CLEMENTI AVENUE 4 MY FIRST SKOOL SINGAPORE 120375,375,MY FIRST SKOOL,1.318488058,103.7667015,103.7667015,120375,CLEMENTI AVENUE 4,MY FIRST SKOOL,20586.17469,33417.327110000006,375 CLEMENTI AVE 4
0,192 PASIR RIS STREET 12 HDB-PASIR RIS SINGAPORE 510192,192,HDB-PASIR RIS,1.366247334,103.95905690000001,103.95905690000001,510192,PASIR RIS STREET 12,HDB-PASIR RIS,41993.189860000006,38698.570289999996,192 PASIR RIS ST 12
1,192 PASIR RIS STREET 12 HDB PUBLIC SHELTERS SINGAPORE 510192,192,HDB PUBLIC SHELTERS,1.366247335,103.959057,103.959057,510192,PASIR RIS STREET 12,HDB PUBLIC SHELTERS,41993.19035,38698.57041,192 PASIR RIS ST 12
0,157 YISHUN STREET 11 CHONG PANG VISTA SINGAPORE 760157,157,CHONG PANG VISTA,1.432217901,103.8340914,103.8340914,760157,YISHUN STREET 11,CHONG PANG VISTA,28086.000460000003,45992.8957,157 YISHUN ST 11
0,111 EDGEFIELD PLAINS SINGAPORE 820111,111,NIL,1.396677886,103.9065791,103.9065791,820111,EDGEFIELD PLAINS,111 EDGEFIELD PLAINS SINGAPORE 820111,36152.92341,42063.18724,111 EDGEFIELD PLAINS
0,23 BENDEMEER ROAD BENDEMEER VILLE SINGAPORE 330023,23,BENDEMEER VILLE,1.317710415,103.862786,103.862786,330023,BENDEMEER ROAD,BENDEMEER VILLE,31279.440389999996,33331.25943,23 BENDEMEER RD
0,34 CASSIA CRESCENT HDB-GUILLEMARD SINGAPORE 390034,34,HDB-GUILLEMARD,1.3096407840000002,103.8844718,103.8844718,390034,CASSIA CRESCENT,HDB-GUILLEMARD,33692.87148,32438.999860000004,34 CASSIA CRES
0,17 EUNOS CRESCENT HDB-JALAN EUNOS SINGAPORE 400017,17,HDB-JALAN EUNOS,1.323370149,103.9044037,103.9044037,400017,EUNOS CRESCENT,HDB-JALAN EUNOS,35911.06594,33957.17769,17 EUNOS CRES
1,17 EUNOS CRESCENT KIDDY CAMPUS SINGAPORE 400017,17,KIDDY CAMPUS,1.323370157,103.9044037,103.9044037,400017,EUNOS CRESCENT,KIDDY CAMPUS,35911.06669,33957.1786,17 EUNOS CRES
0,761 CHOA CHU KANG NORTH 5 HDB-CHOA CHU KANG SINGAPORE 680761,761,HDB-CHOA CHU KANG,1.393077884,103.7478449,103.7478449,680761,CHOA CHU KANG NORTH 5,HDB-CHOA CHU KANG,18487.8983,41665.16283,761 CHOA CHU KANG NTH 5
0,248 JURONG EAST STREET 24 HDB-JURONG EAST SINGAPORE 600248,248,HDB-JURONG EAST,1.342273144,103.74010140000001,103.74010140000001,600248,JURONG EAST STREET 24,HDB-JURONG EAST,17625.93144,36047.45853,248 JURONG EAST ST 24
1,248 JURONG EAST STREET 24 BRIGHT JUNIORS PTE LTD SINGAPORE 600248,248,BRIGHT JUNIORS PTE LTD,1.3422731430000001,103.74010140000001,103.74010140000001,600248,JURONG EAST STREET 24,BRIGHT JUNIORS PTE LTD,17625.93201,36047.45841,248 JURONG EAST ST 24
0,771 WOODLANDS DRIVE 60 HDB-WOODLANDS SINGAPORE 730771,771,HDB-WOODLANDS,1.446765941,103.7979619,103.7979619,730771,WOODLANDS DRIVE 60,HDB-WOODLANDS,24065.35629,47601.575560000005,771 WOODLANDS DR 60
0,6B BOON TIONG ROAD BOON TIONG ARCADIA SINGAPORE 165006,6B,BOON TIONG ARCADIA,1.2865459959999999,103.8308245,103.8308245,165006,BOON TIONG ROAD,BOON TIONG ARCADIA,27722.427639999998,29885.23931,6B BOON TIONG RD
0,5 SEMBONG ROAD SEMBAWANG GARDEN ARCADE SINGAPORE 758330,5,SEMBAWANG GARDEN ARCADE,1.441338571,103.8224106,103.8224106,758330,SEMBONG ROAD,SEMBAWANG GARDEN ARCADE,26786.11005,47001.416410000005,5 SEMBAWANG RD
1,5 CASUARINA ROAD SEMBAWANG HILLS ESTATE SINGAPORE 579394,5,SEMBAWANG HILLS ESTATE,1.373157535,103.82798009999999,103.82798009999999,579394,CASUARINA ROAD,SEMBAWANG HILLS ESTATE,27405.892969999997,39462.29984,5 SEMBAWANG RD
0,212 BUKIT BATOK STREET 21 HDB-BUKIT BATOK SINGAPORE 650212,212,HDB-BUKIT BATOK,1.347192811,103.7522173,103.7522173,650212,BUKIT BATOK STREET 21,HDB-BUKIT BATOK,18974.326559999998,36591.40265,212 BT BATOK ST 21
0,140 BISHAN STREET 12 BISHAN GREEN SINGAPORE 570140,140,BISHAN GREEN,1.3447996709999999,103.8531065,103.8531065,570140,BISHAN STREET 12,BISHAN GREEN,30202.1833,36326.64009,140 BISHAN ST 12
1,140 BISHAN STREET 12 BRIGHT JUNIORS PTE. LTD. SINGAPORE 570140,140,BRIGHT JUNIORS PTE. LTD.,1.344811486,103.8530933,103.8530933,570140,BISHAN STREET 12,BRIGHT JUNIORS PTE. LTD.,30200.705189999997,36327.94651,140 BISHAN ST 12
0,988B BUANGKOK GREEN BUANGKOK VALE SINGAPORE 532988,988B,BUANGKOK VALE,1.379894363,103.87740620000001,103.87740620000001,532988,BUANGKOK GREEN,BUANGKOK VALE,32906.40206,40207.268860000004,988B BUANGKOK GREEN
0,980B BUANGKOK CRESCENT HDB-HOUGANG SINGAPORE 532980,980B,HDB-HOUGANG,1.3797252969999998,103.8811333,103.8811333,532980,BUANGKOK CRESCENT,HDB-HOUGANG,33321.174739999995,40188.58234,980B BUANGKOK CRES
0,860 TAMPINES AVENUE 5 TAMPINES PARKVIEW SINGAPORE 520860,860,TAMPINES PARKVIEW,1.355460347,103.9375956,103.9375956,520860,TAMPINES AVENUE 5,TAMPINES PARKVIEW,39604.84397,37505.68399,860 TAMPINES AVE 5
0,787 CHOA CHU KANG NORTH 6 HDB-CHOA CHU KANG SINGAPORE 682787,787,HDB-CHOA CHU KANG,1.3958203530000002,103.7477526,103.7477526,682787,CHOA CHU KANG NORTH 6,HDB-CHOA CHU KANG,18477.64829,41968.41185,787 CHOA CHU KANG NTH 6
1,787 CHOA CHU KANG NORTH 6,787,NIL,1.395820354,103.7477526,103.7477526,NIL,CHOA CHU KANG NORTH 6,787 CHOA CHU KANG NORTH 6,18477.64832,41968.41192,787 CHOA CHU KANG NTH 6
0,281 TAMPINES STREET 22 HDB-TAMPINES SINGAPORE 520281,281,HDB-TAMPINES,1.3471770140000001,103.9525872,103.9525872,520281,TAMPINES STREET 22,HDB-TAMPINES,41273.290839999994,36589.83038,281 TAMPINES ST 22
0,183D RIVERVALE CRESCENT HDB-SENGKANG SINGAPORE 544183,183D,HDB-SENGKANG,1.3914504109999999,103.9087431,103.9087431,544183,RIVERVALE CRESCENT,HDB-SENGKANG,36393.76518,41485.16661,183D RIVERVALE CRES
0,146 JALAN BUKIT MERAH HDB-BUKIT MERAH SINGAPORE 160146,146,HDB-BUKIT MERAH,1.277848766,103.8308115,103.8308115,160146,JALAN BUKIT MERAH,HDB-BUKIT MERAH,27720.97768,28923.544530000003,146 JLN BT MERAH
1,146 JALAN BUKIT MERAH DBS JALAN BUKIT MERAH SINGAPORE 160146,146,DBS JALAN BUKIT MERAH,1.277837333,103.8308146,103.8308146,160146,JALAN BUKIT MERAH,DBS JALAN BUKIT MERAH,27721.32779,28922.280389999996,146 JLN BT MERAH
2,146 JALAN BUKIT MERAH GOLDEN HOSTEL SINGAPORE 160146,146,GOLDEN HOSTEL,1.277747186,103.83099320000001,103.83099320000001,160146,JALAN BUKIT MERAH,GOLDEN HOSTEL,27741.204960000003,28912.312360000004,146 JLN BT MERAH
0,128 BUKIT MERAH VIEW BUKIT MERAH VIEW SINGAPORE 150128,128,BUKIT MERAH VIEW,1.282646752,103.8233271,103.8233271,150128,BUKIT MERAH VIEW,BUKIT MERAH VIEW,26888.031710000003,29454.08308,128 BT MERAH VIEW
0,695 JURONG WEST CENTRAL 1 HDB-JURONG WEST SINGAPORE 640695,695,HDB-JURONG WEST,1.34256318,103.70742220000001,103.70742220000001,640695,JURONG WEST CENTRAL 1,HDB-JURONG WEST,13989.084640000001,36079.69223,695 JURONG WEST CTRL 1
0,803 CHAI CHEE ROAD PING-AN GARDENS SINGAPORE 460803,803,PING-AN GARDENS,1.3241095729999999,103.9225791,103.9225791,460803,CHAI CHEE ROAD,PING-AN GARDENS,37933.80934,34039.00492,803 CHAI CHEE RD
0,798 WOODLANDS DRIVE 72 HDB-WOODLANDS SINGAPORE 730798,798,HDB-WOODLANDS,1.44371803,103.8036343,103.8036343,730798,WOODLANDS DRIVE 72,HDB-WOODLANDS,24696.59857,47264.54374,798 WOODLANDS DR 72
0,206 BUKIT BATOK STREET 21 HDB-BUKIT BATOK SINGAPORE 650206,206,HDB-BUKIT BATOK,1.346671926,103.7493835,103.7493835,650206,BUKIT BATOK STREET 21,HDB-BUKIT BATOK,18658.94694,36533.816439999995,206 BT BATOK ST 21
1,206 BUKIT BATOK STREET 21 PCF SPARKLETOTS PRESCHOOL @ BUKIT BATOK 206 (CC) SINGAPORE 650206,206,PCF SPARKLETOTS PRESCHOOL @ BUKIT BATOK 206 (CC),1.346671921,103.7493835,103.7493835,650206,BUKIT BATOK STREET 21,PCF SPARKLETOTS PRESCHOOL @ BUKIT BATOK 206 (CC),18658.94709,36533.8159,206 BT BATOK ST 21
0,352 YISHUN RING ROAD YISHUN JASMINE SINGAPORE 760352,352,YISHUN JASMINE,1.426462542,103.84490890000001,103.84490890000001,760352,YISHUN RING ROAD,YISHUN JASMINE,29289.834960000004,45356.50026,352 YISHUN RING RD
0,450 BUKIT PANJANG RING ROAD HDB-BUKIT PANJANG SINGAPORE 670450,450,HDB-BUKIT PANJANG,1.384528397,103.7724317,103.7724317,670450,BUKIT PANJANG RING ROAD,HDB-BUKIT PANJANG,21224.072,40719.71841,450 BT PANJANG RING RD
1,450 BUKIT PANJANG RING ROAD CITIKIDS EDVENTURE PTE. LTD. SINGAPORE 670450,450,CITIKIDS EDVENTURE PTE. LTD.,1.3845283940000002,103.7724317,103.7724317,670450,BUKIT PANJANG RING ROAD,CITIKIDS EDVENTURE PTE. LTD.,21224.07221,40719.71799,450 BT PANJANG RING RD
0,195C PUNGGOL ROAD THE PERIWINKLE SINGAPORE 823195,195C,THE PERIWINKLE,1.4010920709999999,103.9068312,103.9068312,823195,PUNGGOL ROAD,THE PERIWINKLE,36180.95553,42551.28669,195C PUNGGOL RD
1,195C PUNGGOL ROAD EDUVENTURE CHILDCARE CENTRE PTE LTD SINGAPORE 823195,195C,EDUVENTURE CHILDCARE CENTRE PTE LTD,1.401083422,103.906767,103.906767,823195,PUNGGOL ROAD,EDUVENTURE CHILDCARE CENTRE PTE LTD,36173.81159,42550.33019,195C PUNGGOL RD
0,424 SERANGOON CENTRAL HDB-SERANGOON ESTATE SINGAPORE 550424,424,HDB-SERANGOON ESTATE,1.348147389,103.8755908,103.8755908,550424,SERANGOON CENTRAL,HDB-SERANGOON ESTATE,32704.43258,36696.84559,424 SERANGOON CTRL
0,407 SERANGOON AVENUE 1 HDB-SERANGOON ESTATE SINGAPORE 550407,407,HDB-SERANGOON ESTATE,1.34718613,103.8729682,103.8729682,550407,SERANGOON AVENUE 1,HDB-SERANGOON ESTATE,32412.562139999998,36590.54954,407 SERANGOON AVE 1
1,407 SERANGOON AVENUE 1 THE MORAL CHILDCARE CENTRE SINGAPORE 550407,407,THE MORAL CHILDCARE CENTRE,1.3471861230000002,103.8729682,103.8729682,550407,SERANGOON AVENUE 1,THE MORAL CHILDCARE CENTRE,32412.562589999998,36590.5487,407 SERANGOON AVE 1
0,202B PUNGGOL FIELD SINGAPORE 822202,202B,NIL,1.3992347809999999,103.9042775,103.9042775,822202,PUNGGOL FIELD,202B PUNGGOL FIELD SINGAPORE 822202,35896.778119999995,42345.90803,202B PUNGGOL FIELD
0,374 CLEMENTI AVENUE 4 HDB-CLEMENTI SINGAPORE 120374,374,HDB-CLEMENTI,1.3191261859999999,103.76698370000001,103.76698370000001,120374,CLEMENTI AVENUE 4,HDB-CLEMENTI,20617.5721,33487.887189999994,374 CLEMENTI AVE 4
0,727 CLEMENTI WEST STREET 2 SINGAPORE 120727,727,NIL,1.304624877,103.7638177,103.7638177,120727,CLEMENTI WEST STREET 2,727 CLEMENTI WEST STREET 2 SINGAPORE 120727,20265.19283,31884.415419999998,727 CLEMENTI WEST ST 2
1,727 CLEMENTI WEST STREET 2,727,NIL,1.30409371,103.7638179,103.7638179,NIL,CLEMENTI WEST STREET 2,727 CLEMENTI WEST STREET 2,20265.20379,31825.6817,727 CLEMENTI WEST ST 2
2,727 CLEMENTI WEST STREET 2 CLEMENTI WEST POST OFFICE SINGAPORE 120727,727,CLEMENTI WEST POST OFFICE,1.304345432,103.76339370000001,103.76339370000001,120727,CLEMENTI WEST STREET 2,CLEMENTI WEST POST OFFICE,20217.99515,31853.51717,727 CLEMENTI WEST ST 2
3,727 CLEMENTI WEST STREET 2 OCBC CLEMENTI WEST ST 2 SINGAPORE 120727,727,OCBC CLEMENTI WEST ST 2,1.30409371,103.7638179,103.7638179,120727,CLEMENTI WEST STREET 2,OCBC CLEMENTI WEST ST 2,20265.20379,31825.6817,727 CLEMENTI WEST ST 2
0,111 ANG MO KIO AVENUE 4 KEBUN BARU HEIGHTS SINGAPORE 560111,111,KEBUN BARU HEIGHTS,1.37085149,103.8372982,103.8372982,560111,ANG MO KIO AVENUE 4,KEBUN BARU HEIGHTS,28442.87872,39207.30881,111 ANG MO KIO AVE 4
1,111 ANG MO KIO AVENUE 4 KEBUN BARU NEIGHBOURHOOD POLICE POST SINGAPORE 560111,111,KEBUN BARU NEIGHBOURHOOD POLICE POST,1.370816346,103.836984,103.836984,560111,ANG MO KIO AVENUE 4,KEBUN BARU NEIGHBOURHOOD POLICE POST,28407.91318,39203.42273,111 ANG MO KIO AVE 4
0,889 TAMPINES STREET 81 TAMPINES GROVE SINGAPORE 520889,889,TAMPINES GROVE,1.3499134830000001,103.9310495,103.9310495,520889,TAMPINES STREET 81,TAMPINES GROVE,38876.35825,36892.30887,889 TAMPINES ST 81
0,603 HOUGANG AVENUE 4 HDB-HOUGANG SINGAPORE 530603,603,HDB-HOUGANG,1.3714360280000002,103.88584509999998,103.88584509999998,530603,HOUGANG AVENUE 4,HDB-HOUGANG,33845.55993,39272.00778,603 HOUGANG AVE 4
1,603 HOUGANG AVENUE 4 SIAN CHAY MEDICAL INSTITUTION AMK-HOUGANG BRANCH SINGAPORE 530603,603,SIAN CHAY MEDICAL INSTITUTION AMK-HOUGANG BRANCH,1.371466865,103.88627650000001,103.88627650000001,530603,HOUGANG AVENUE 4,SIAN CHAY MEDICAL INSTITUTION AMK-HOUGANG BRANCH,33893.57173,39275.41861,603 HOUGANG AVE 4
0,118D JALAN MEMBINA MEMBINA 118 SINGAPORE 164118,118D,MEMBINA 118,1.282681051,103.8265834,103.8265834,164118,JALAN MEMBINA,MEMBINA 118,27250.43458,29457.87445,118D JLN MEMBINA
