address,LATITUDE,LONGITUDE
Princess Elizabeth Primary School,1.349194518,103.7409996
Woodgrove Primary School,1.43305806,103.7903896
Nanyang Primary School,1.32111549,103.8064681
Nanyang Primary School,1.321246289,103.8077947
Waterway Primary School,1.39915421,103.9186708
Alexandra Primary School,1.291299035,103.8239408
Maris Stella High School,1.3421839569999998,103.8780964
Maris Stella High School,1.341302514,103.8778141
Bukit View Primary School,1.345945246,103.7535888
Woodlands Ring Primary School,1.434769705,103.7978411
Lianhua Primary School,1.3541550690000002,103.7542104
Jiemin Primary School,1.427646852,103.8304804
Springdale Primary School,1.394958184,103.8898965
Kuo Chuan Presbyterian Primary School,1.349783074,103.8545292
Kuo Chuan Presbyterian Primary School,1.3493843559999998,103.8551708
Ahmad Ibrahim Primary School,1.4336812069999998,103.8329243
CHIJ Our Lady Queen of Peace,1.366758014,103.7676948
Farrer Park Primary School,1.312504162,103.8509027
Tanjong Katong Primary School,1.305307371,103.9005317
Tanjong Katong Primary School,1.324340929,103.9391298
Chua Chu Kang Primary School,1.377743283,103.7418605
Raffles Girls' Primary School,1.3300739190000002,103.8062213
CHIJ Our Lady of the Nativity,1.373174017,103.8976594
Stamford Primary School,1.304091083,103.857393
Pei Tong Primary School,1.316148017,103.7675763
Tampines Primary School,1.350486398,103.9435731
CHIJ Our Lady of Good Counsel,1.357951427,103.8642502
Northoaks Primary School,1.456666873,103.81361
Ai Tong School,1.360736365,103.8330757
Red Swastika School,1.33349383,103.9343749
Keming Primary School,1.3452450530000002,103.7562645
Canberra Primary School,1.4510640069999998,103.8159709
Riverside Primary School,1.44710495,103.8019212
Meridian Primary School,1.3759708309999998,103.9351432
Rosyth School,1.372915796,103.8746932
Cantonment Primary School,1.275505441,103.8399227
Westwood Primary School,1.347154632,103.7005267
Zhangde Primary School,1.28449822,103.826149
Fuhua Primary School,1.336403763,103.7366695
Concord Primary School,1.380411513,103.7361428
Hong Wen School,1.321689285,103.8576518
Townsville Primary School,1.360362634,103.8541855
Yumin Primary School,1.351459603,103.9507161
Teck Whye Primary School,1.383558303,103.7536828
Frontier Primary School,1.336643122,103.6996828
Bukit Timah Primary School,1.337749867,103.7668553
River Valley Primary School,1.294183475,103.8360189
Xinghua Primary School,1.357996547,103.8902164
Kranji Primary School,1.393910031,103.7474154
Anchor Green Primary School,1.390662478,103.8872561
Radin Mas Primary School,1.274961612,103.82418
CHIJ (Kellock),1.274961612,103.82418
CHIJ (Katong) Primary,1.274961612,103.82418
Greenridge Primary School,1.385873754,103.7678146
Palm View Primary School,1.383840764,103.8912151
Punggol View Primary School,1.4053333140000002,103.9053865
Northland Primary School,1.421304044,103.8407929
Park View Primary School,1.377770261,103.9396887
Xishan Primary School,1.433501455,103.8382893
West Spring Primary School,1.389463118,103.7660773
Telok Kurau Primary School,1.330913472,103.9113491
Marymount Convent School,1.340427023,103.839899
Woodlands Primary School,1.436746383,103.7917717
Shuqun Primary School,1.34756849,103.721558
Lakeside Primary School,1.338375703,103.7180505
Boon Lay Garden Primary School,1.3428467080000002,103.712969
Angsana Primary School,1.348571433,103.951673
Yuhua Primary School,1.3429198180000002,103.7408611
Bendemeer Primary School,1.322208475,103.8653513
North View Primary School,1.4279434030000002,103.8483683
Punggol Cove Primary School,1.411563565,103.8989704
Pioneer Primary School,1.3487209269999998,103.6948679
Horizon Primary School,1.400008815,103.9130715
Nan Chiau Primary School,1.392064685,103.890925
West View Primary School,1.383590574,103.7602891
Chongfu School,1.438462312,103.8390707
Jing Shan Primary School,1.371892676,103.8518111
Anderson Primary School,1.384665965,103.8412384
De La Salle School,1.395071916,103.7434436
Gan Eng Seng Primary School,1.285955393,103.8152282
Temasek Primary School,1.317716389,103.9456952
Canossa Catholic Primary School,1.32651106,103.8817569
Greendale Primary School,1.396402656,103.912566
Poi Ching School,1.358087001,103.9353525
Punggol Green Primary School,1.401804873,103.8987729
Si Ling Primary School,1.432699866,103.7857788
Bukit Panjang Primary School,1.373472192,103.7693175
Clementi Primary School,1.315808563,103.7630548
Queenstown Primary School,1.295988446,103.8079019
Anglo-Chinese School (Junior),1.309321297,103.8406435
Montfort Junior School,1.373937639,103.8896908
Admiralty Primary School,1.4426796169999998,103.8001144
Zhenghua Primary School,1.379802361,103.7691708
Qihua Primary School,1.442035966,103.7883398
Geylang Methodist School (Primary),1.31759275,103.883893
Fuchun Primary School,1.430639768,103.7781752
Elias Park Primary School,1.375033032,103.9453578
Jurong Primary School,1.348684512,103.7329748
Xinmin Primary School,1.371414726,103.8830391
Yishun Primary School,1.433496399,103.8340274
Paya Lebar Methodist Girls' School (Primary),1.433496399,103.8340274
Endeavour Primary School,1.45417629,103.8174273
Yew Tee Primary School,1.396961392,103.7511946
Henry Park Primary School,1.316725811,103.7842083
Qifa Primary School,1.312621542,103.75703
Edgefield Primary School,1.400297835,103.9074305
Huamin Primary School,1.4269977459999998,103.8442097
Ang Mo Kio Primary School,1.369092065,103.8390414
Fernvale Primary School,1.389979408,103.874101
Gongshang Primary School,1.357348982,103.9488719
Bedok Green Primary School,1.323996276,103.937745
Fengshan Primary School,1.330324955,103.9318854
Marsiling Primary School,1.434423117,103.7736977
Innova Primary School,1.429184592,103.7905571
Holy Innocents' Primary School,1.366737841,103.8936841
Jurong West Primary School,1.339243753,103.6988958
Punggol Primary School,1.378200623,103.8947533
Kong Hwa School,1.311114219,103.8882094
Zhonghua Primary School,1.360166735,103.8696959
Rivervale Primary School,1.393573805,103.9047183
Eunos Primary School,1.324388358,103.9043748
Catholic High School (Primary),1.354388784,103.8442107
Guangyang Primary School,1.346042665,103.8492848
Tampines North Primary School,1.36069172,103.9489368
Yu Neng Primary School,1.3339038090000002,103.9320341
Changkat Primary School,1.340208008,103.9521834
Peiying Primary School,1.417408192,103.8302995
Sembawang Primary School,1.445043645,103.8210215
Pasir Ris Primary School,1.372308619,103.9629189
Anglo-Chinese School (Primary),1.318718599,103.8353452
Naval Base Primary School,1.4162801530000002,103.8387977
North Vista Primary School,1.382893394,103.8958542
Tao Nan School,1.304631529,103.9112042
Xingnan Primary School,1.342684876,103.687724
Corporation Primary School,1.35148549,103.70757840000002
Nan Hua Primary School,1.319836638,103.761404
Damai Primary School,1.335351315,103.9212683
First Toa Payoh Primary School,1.340526165,103.8556675
West Grove Primary School,1.3447121219999998,103.6989642
Junyuan Primary School,1.347891544,103.9396469
Dazhong Primary School,1.3590589919999998,103.7481615
Mayflower Primary School,1.376398733,103.8431658
Mayflower Primary School,1.376398737,103.8431658
Mayflower Primary School,1.376068156,103.8357467
Kheng Cheng School,1.337407636,103.8477611
New Town Primary School,1.299811388,103.7999648
East Spring Primary School,1.353041046,103.96179709999998
Beacon Primary School,1.384236677,103.77375440000002
Yio Chu Kang Primary School,1.377822709,103.8855687
Methodist Girls' School (Primary),1.377822709,103.8855687
Casuarina Primary School,1.372789016,103.9572913
Compassvale Primary School,1.3945298309999998,103.8978648
Haig Girls' School,1.3117720590000002,103.9026555
Wellington Primary School,1.451933871,103.82232059999998
Blangah Rise Primary School,1.276130304,103.8086392
CHIJ Primary (Toa Payoh),1.332818153,103.8419184
Mee Toh School,1.394853563,103.9085726
Seng Kang Primary School,1.389250457,103.8995279
Fairfield Methodist School (Primary),1.300798691,103.7856922
Teck Ghee Primary School,1.365200631,103.8510322
North Spring Primary School,1.387528236,103.903513
Sengkang Green Primary School,1.3928392509999998,103.8751588
Maha Bodhi School,1.328470866,103.9012987
Maha Bodhi School,1.328407723,103.9015276
Chongzheng Primary School,1.350594769,103.9512252
Hougang Primary School,1.378039861,103.8811662
White Sands Primary School,1.365517813,103.9609482
Opera Estate Primary School,1.319968755,103.9237527
Unity Primary School,1.40282339,103.7469934
Yangzheng Primary School,1.348972024,103.8683625
Valour Primary School,1.406871355,103.8989109
Evergreen Primary School,1.4441483590000002,103.7945453
South View Primary School,1.381766725,103.7472898
Cedar Primary School,1.335641223,103.8754913
Ngee Ann Primary School,1.305540153,103.9177554
Juying Primary School,1.338951451,103.6878331
Pei Hwa Presbyterian Primary School,1.338067044,103.7761915
Rulang Primary School,1.346844456,103.7190098
Greenwood Primary School,1.440110498,103.8046293
Oasis Primary School,1.40440927,103.9109964
Pei Chun Public School,1.337288933,103.8554735
