,ADDRESS,BLK_NO,BUILDING,LATITUDE,LONGITUDE,LONGTITUDE,POSTAL,ROAD_NAME,SEARCHVAL,X,Y,address
0,112 EAST COAST ROAD GOLDEN VILLAGE (GV KATONG) SINGAPORE 428802,112,GOLDEN VILLAGE (GV KATONG),1.3052246159999998,103.9051019,103.9051019,428802,EAST COAST ROAD,GOLDEN VILLAGE (GV KATONG),35988.82245,31950.7386,428802
1,112 EAST COAST ROAD 112 KATONG SINGAPORE 428802,112,112 KATONG,1.305086818,103.90509890000001,103.90509890000001,428802,EAST COAST ROAD,112 KATONG,35988.49359,31935.501630000002,428802
2,112 EAST COAST ROAD DBS 112 KATONG SINGAPORE 428802,112,DBS 112 KATONG,1.305158419,103.90506690000001,103.90506690000001,428802,EAST COAST ROAD,DBS 112 KATONG,35984.9309,31943.41871,428802
3,112 EAST COAST ROAD UOB I12 KATONG AUTOLOBBY SINGAPORE 428802,112,UOB I12 KATONG AUTOLOBBY,1.305223062,103.9050439,103.9050439,428802,EAST COAST ROAD,UOB I12 KATONG AUTOLOBBY,35982.37371,31950.56659,428802
0,78A TELOK BLANGAH STREET 32 MULTI STOREY CAR PARK SINGAPORE 101078,78A,MULTI STOREY CAR PARK,1.273387515,103.8089806,103.8089806,101078,TELOK BLANGAH STREET 32,MULTI STOREY CAR PARK,25291.36793,28430.25516,101078
1,78A TELOK BLANGAH STREET 32 PCF SPARKLETOTS PRESCHOOL @ TELOK BLANGAH BLK 78A (KN) SINGAPORE 101078,78A,PCF SPARKLETOTS PRESCHOOL @ TELOK BLANGAH BLK 78A (KN),1.27338252,103.8089348,103.8089348,101078,TELOK BLANGAH STREET 32,PCF SPARKLETOTS PRESCHOOL @ TELOK BLANGAH BLK 78A (KN),25286.27671,28429.702889999997,101078
2,78A TELOK BLANGAH STREET 32 DBS NTUC TELOK BLANGAH STREET 32 SINGAPORE 101078,78A,DBS NTUC TELOK BLANGAH STREET 32,1.273380702,103.8089806,103.8089806,101078,TELOK BLANGAH STREET 32,DBS NTUC TELOK BLANGAH STREET 32,25291.36769,28429.50179,101078
3,78A TELOK BLANGAH STREET 32 OCBC TELOK BLANGAH STREET 32 - FAIRPRICE SINGAPORE 101078,78A,OCBC TELOK BLANGAH STREET 32 - FAIRPRICE,1.273387515,103.8089806,103.8089806,101078,TELOK BLANGAH STREET 32,OCBC TELOK BLANGAH STREET 32 - FAIRPRICE,25291.3679,28430.255189999996,101078
0,11 RIVERVALE CRESCENT SINGAPORE 545082,11,NIL,1.39250411,103.9044837,103.9044837,545082,RIVERVALE CRESCENT,11 RIVERVALE CRESCENT SINGAPORE 545082,35919.73968,41601.66468,545082
1,11 RIVERVALE CRESCENT RIVERVALE MALL SINGAPORE 545082,11,RIVERVALE MALL,1.3922173269999998,103.90447309999999,103.90447309999999,545082,RIVERVALE CRESCENT,RIVERVALE MALL,35918.56129,41569.95358,545082
2,11 RIVERVALE CRESCENT DBS RIVERVALE MALL SINGAPORE 545082,11,DBS RIVERVALE MALL,1.3922173269999998,103.90447309999999,103.90447309999999,545082,RIVERVALE CRESCENT,DBS RIVERVALE MALL,35918.56129,41569.953610000004,545082
3,11 RIVERVALE CRESCENT UOB RIVERVALE MALL SINGAPORE 545082,11,UOB RIVERVALE MALL,1.3922173269999998,103.90447309999999,103.90447309999999,545082,RIVERVALE CRESCENT,UOB RIVERVALE MALL,35918.56129,41569.953610000004,545082
4,11 RIVERVALE CRESCENT OCBC RIVERVALE MALL SINGAPORE 545082,11,OCBC RIVERVALE MALL,1.3922173269999998,103.90447309999999,103.90447309999999,545082,RIVERVALE CRESCENT,OCBC RIVERVALE MALL,35918.56129,41569.953610000004,545082
5,11 RIVERVALE CRESCENT OCBC RIVERVALE MALL - FAIRPRICE SINGAPORE 545082,11,OCBC RIVERVALE MALL - FAIRPRICE,1.3922173269999998,103.90447309999999,103.90447309999999,545082,RIVERVALE CRESCENT,OCBC RIVERVALE MALL - FAIRPRICE,35918.56129,41569.953610000004,545082
0,301 PUNGGOL CENTRAL CORALINUS SINGAPORE 820301,301,CORALINUS,1.4037193980000002,103.906138,103.906138,820301,PUNGGOL CENTRAL,CORALINUS,36103.80746,42841.80103,820301
1,301 PUNGGOL CENTRAL UOB PUNGGOL CENTRAL SINGAPORE 820301,301,UOB PUNGGOL CENTRAL,1.403580476,103.906279,103.906279,820301,PUNGGOL CENTRAL,UOB PUNGGOL CENTRAL,36119.500289999996,42826.44021,820301
0,23 MANDAI ESTATE WESTLITE JUNIPER SINGAPORE 729937,23,WESTLITE JUNIPER,1.40630278,103.7606146,103.7606146,729937,MANDAI ESTATE,WESTLITE JUNIPER,19909.04697,43127.45828,729937
0,399 YUNG SHENG ROAD TAMAN JURONG SHOPPING CENTRE SINGAPORE 610399,399,TAMAN JURONG SHOPPING CENTRE,1.334844875,103.720462,103.720462,610399,YUNG SHENG ROAD,TAMAN JURONG SHOPPING CENTRE,15440.2441,35226.16899,610399
1,399 YUNG SHENG ROAD IMAN CHILDCARE (JURONG) PTE. LTD. SINGAPORE 610399,399,IMAN CHILDCARE (JURONG) PTE. LTD.,1.335042029,103.720268,103.720268,610399,YUNG SHENG ROAD,IMAN CHILDCARE (JURONG) PTE. LTD.,15418.6545,35247.9703,610399
2,399 YUNG SHENG ROAD UOB TAMAN JURONG SHOPPING CENTRE SINGAPORE 610399,399,UOB TAMAN JURONG SHOPPING CENTRE,1.334844875,103.720462,103.720462,610399,YUNG SHENG ROAD,UOB TAMAN JURONG SHOPPING CENTRE,15440.2441,35226.16899,610399
3,399 YUNG SHENG ROAD DBS NTUC TAMAN JURONG SHOPPING CENTRE SINGAPORE 610399,399,DBS NTUC TAMAN JURONG SHOPPING CENTRE,1.334844875,103.720462,103.720462,610399,YUNG SHENG ROAD,DBS NTUC TAMAN JURONG SHOPPING CENTRE,15440.2441,35226.16899,610399
4,399 YUNG SHENG ROAD OCBC TAMAN JURONG SHOPPING CENTRE SINGAPORE 610399,399,OCBC TAMAN JURONG SHOPPING CENTRE,1.334844875,103.720462,103.720462,610399,YUNG SHENG ROAD,OCBC TAMAN JURONG SHOPPING CENTRE,15440.2441,35226.16899,610399
5,399 YUNG SHENG ROAD DBS TAMAN JURONG SHOPPING CENTRE SINGAPORE 610399,399,DBS TAMAN JURONG SHOPPING CENTRE,1.334764225,103.7204608,103.7204608,610399,YUNG SHENG ROAD,DBS TAMAN JURONG SHOPPING CENTRE,15440.1095,35217.251169999996,610399
6,399 YUNG SHENG ROAD JUST KIDS @ TAMAN JURONG PTE. LTD. SINGAPORE 610399,399,JUST KIDS @ TAMAN JURONG PTE. LTD.,1.335042029,103.720268,103.720268,610399,YUNG SHENG ROAD,JUST KIDS @ TAMAN JURONG PTE. LTD.,15418.6545,35247.9703,610399
7,399 YUNG SHENG ROAD OCBC TAMAN JURONG SHOPPING CENTRE - FAIRPRICE SINGAPORE 610399,399,OCBC TAMAN JURONG SHOPPING CENTRE - FAIRPRICE,1.334844875,103.720462,103.720462,610399,YUNG SHENG ROAD,OCBC TAMAN JURONG SHOPPING CENTRE - FAIRPRICE,15440.2441,35226.16899,610399
8,399 YUNG SHENG ROAD JURONG-CLEMENTI TOWN COUNCIL (TAMAN JURONG COLLECTION & SERVICE CENTRE) SINGAPORE 610399,399,JURONG-CLEMENTI TOWN COUNCIL (TAMAN JURONG COLLECTION & SERVICE CENTRE),1.334665446,103.7206855,103.7206855,610399,YUNG SHENG ROAD,JURONG-CLEMENTI TOWN COUNCIL (TAMAN JURONG COLLECTION & SERVICE CENTRE),15465.114969999999,35206.32751,610399
0,376 BUKIT BATOK STREET 31 SINGAPORE 650376,376,NIL,1.3583170519999999,103.74957990000001,103.74957990000001,650376,BUKIT BATOK STREET 31,376 BUKIT BATOK STREET 31 SINGAPORE 650376,18680.847980000002,37821.47571,650376
0,78 SERANGOON GARDEN WAY SERANGOON GARDEN ESTATE SINGAPORE 555974,78,SERANGOON GARDEN ESTATE,1.36428137,103.8651339,103.8651339,555974,SERANGOON GARDEN WAY,SERANGOON GARDEN ESTATE,31540.672560000003,38480.84142,555974
1,78A SERANGOON GARDEN WAY SERANGOON GARDEN ESTATE SINGAPORE 555974,78A,SERANGOON GARDEN ESTATE,1.36428137,103.8651339,103.8651339,555974,SERANGOON GARDEN WAY,SERANGOON GARDEN ESTATE,31540.67259,38480.841389999994,555974
0,768 WOODLANDS AVENUE 6 SINGAPORE VETERINARY ANIMAL CLINIC SINGAPORE 730768,768,SINGAPORE VETERINARY ANIMAL CLINIC,1.4458129769999999,103.7982191,103.7982191,730768,WOODLANDS AVENUE 6,SINGAPORE VETERINARY ANIMAL CLINIC,24093.97939,47496.20112,730768
1,768 WOODLANDS AVENUE 6 KINDERLAND PRESCHOOL SINGAPORE 730768,768,KINDERLAND PRESCHOOL,1.445622899,103.798141,103.798141,730768,WOODLANDS AVENUE 6,KINDERLAND PRESCHOOL,24085.2873,47475.18339,730768
2,768 WOODLANDS AVENUE 6 DBS WOODLANDS MART SINGAPORE 730768,768,DBS WOODLANDS MART,1.44564787,103.7981623,103.7981623,730768,WOODLANDS AVENUE 6,DBS WOODLANDS MART,24087.6565,47477.9445,730768
3,768 WOODLANDS AVENUE 6 CENTRAL 24-HR CLINIC (WOODLANDS) SINGAPORE 730768,768,CENTRAL 24-HR CLINIC (WOODLANDS),1.445717841,103.79816629999999,103.79816629999999,730768,WOODLANDS AVENUE 6,CENTRAL 24-HR CLINIC (WOODLANDS),24088.105190000002,47485.68157,730768
4,768 WOODLANDS AVENUE 6 UOB WOODLANDS MART SINGAPORE 730768,768,UOB WOODLANDS MART,1.44564787,103.7981623,103.7981623,730768,WOODLANDS AVENUE 6,UOB WOODLANDS MART,24087.6565,47477.9445,730768
5,768 WOODLANDS AVENUE 6 OCBC WOODLANDS MART SINGAPORE 730768,768,OCBC WOODLANDS MART,1.44564787,103.7981623,103.7981623,730768,WOODLANDS AVENUE 6,OCBC WOODLANDS MART,24087.6565,47477.9445,730768
6,768 WOODLANDS AVENUE 6 WOODLANDS MART SINGAPORE 730768,768,WOODLANDS MART,1.44564787,103.7981623,103.7981623,730768,WOODLANDS AVENUE 6,WOODLANDS MART,24087.656469999998,47477.9445,730768
0,23 SERANGOON CENTRAL OCBC NEX - FAIRPRICE SINGAPORE 556083,23,OCBC NEX - FAIRPRICE,1.350438181,103.8717045,103.8717045,556083,SERANGOON CENTRAL,OCBC NEX - FAIRPRICE,32271.927819999997,36950.142510000005,556083
1,23 SERANGOON CENTRAL NEX SINGAPORE 556083,23,NEX,1.3506755209999999,103.87186159999999,103.87186159999999,556083,SERANGOON CENTRAL,NEX,32289.407369999997,36976.38667,556083
2,23 SERANGOON CENTRAL CITIBANK NEX MALL SINGAPORE 556083,23,CITIBANK NEX MALL,1.350645795,103.8725905,103.8725905,556083,SERANGOON CENTRAL,CITIBANK NEX MALL,32370.5216,36973.10099,556083
3,23 SERANGOON CENTRAL SERANGOON BUS INTERCHANGE SINGAPORE 556083,23,SERANGOON BUS INTERCHANGE,1.350769352,103.87229609999999,103.87229609999999,556083,SERANGOON CENTRAL,SERANGOON BUS INTERCHANGE,32337.76529,36986.76281,556083
4,23 SERANGOON CENTRAL SHAW THEATRRES NEX SINGAPORE 556083,23,SHAW THEATRRES NEX,1.350731854,103.8723132,103.8723132,556083,SERANGOON CENTRAL,SHAW THEATRRES NEX,32339.66448,36982.616460000005,556083
5,23 SERANGOON CENTRAL OCBC NEX BRANCH SINGAPORE 556083,23,OCBC NEX BRANCH,1.350438181,103.8717045,103.8717045,556083,SERANGOON CENTRAL,OCBC NEX BRANCH,32271.927819999997,36950.142510000005,556083
6,23 SERANGOON CENTRAL THE VETERINARY CLINIC PTE LTD (NEX MALL BRANCH) SINGAPORE 556083,23,THE VETERINARY CLINIC PTE LTD (NEX MALL BRANCH),1.350888822,103.8721157,103.8721157,556083,SERANGOON CENTRAL,THE VETERINARY CLINIC PTE LTD (NEX MALL BRANCH),32317.680689999997,36999.972780000004,556083
7,23 SERANGOON CENTRAL SERANGOON PUBLIC LIBRARY SINGAPORE 556083,23,SERANGOON PUBLIC LIBRARY,1.3503130840000002,103.8729295,103.8729295,556083,SERANGOON CENTRAL,SERANGOON PUBLIC LIBRARY,32408.24828,36936.3121,556083
8,23 SERANGOON AVENUE 2 CS MONTESSORI KINDERGARTEN @ SERANGOON SINGAPORE 556083,23,CS MONTESSORI KINDERGARTEN @ SERANGOON,1.350675514,103.87186159999999,103.87186159999999,556083,SERANGOON AVENUE 2,CS MONTESSORI KINDERGARTEN @ SERANGOON,32289.408310000003,36976.385910000005,556083
9,23 SERANGOON AVENUE 2 STANDARD CHARTERED BANK NEX SERANGOON SINGAPORE 556083,23,STANDARD CHARTERED BANK NEX SERANGOON,1.3507834969999999,103.87256529999999,103.87256529999999,556083,SERANGOON AVENUE 2,STANDARD CHARTERED BANK NEX SERANGOON,32367.7203,36988.3273,556083
0,57 DAWSON ROAD DAWSON PLACE SINGAPORE 142057,57,DAWSON PLACE,1.292702527,103.8109718,103.8109718,142057,DAWSON ROAD,DAWSON PLACE,25513.000669999998,30566.007489999996,142057
1,57 DAWSON ROAD OCBC DAWSON PLACE SINGAPORE 142057,57,OCBC DAWSON PLACE,1.292702527,103.8109718,103.8109718,142057,DAWSON ROAD,OCBC DAWSON PLACE,25513.0007,30566.007489999996,142057
2,57 DAWSON ROAD DBS NTUC DAWSON PLACE SINGAPORE 142057,57,DBS NTUC DAWSON PLACE,1.292702527,103.8109718,103.8109718,142057,DAWSON ROAD,DBS NTUC DAWSON PLACE,25513.0007,30566.007489999996,142057
3,57 DAWSON ROAD SEEDLINGS MONTESSORI ALEXANDRA PTE LTD SINGAPORE 142057,57,SEEDLINGS MONTESSORI ALEXANDRA PTE LTD,1.292703398,103.810959,103.810959,142057,DAWSON ROAD,SEEDLINGS MONTESSORI ALEXANDRA PTE LTD,25511.56779,30566.10389,142057
4,57 DAWSON ROAD UOB DAWSON PLACE SINGAPORE 142057,57,UOB DAWSON PLACE,1.292703398,103.810959,103.810959,142057,DAWSON ROAD,UOB DAWSON PLACE,25511.56739,30566.10389,142057
0,68 ORCHARD ROAD CITIBANK PLAZA SINGAPURA SINGAPORE 238839,68,CITIBANK PLAZA SINGAPURA,1.30083413,103.8450727,103.8450727,238839,ORCHARD ROAD,CITIBANK PLAZA SINGAPURA,29308.132589999997,31465.15039,238839
1,68 ORCHARD ROAD HSBC PLAZA SINGAPURA SINGAPORE 238839,68,HSBC PLAZA SINGAPURA,1.300834972,103.8450729,103.8450729,238839,ORCHARD ROAD,HSBC PLAZA SINGAPURA,29308.15284,31465.2435,238839
2,68 ORCHARD ROAD OCBC PLAZA SINGAPURA SINGAPORE 238839,68,OCBC PLAZA SINGAPURA,1.300820718,103.8450673,103.8450673,238839,ORCHARD ROAD,OCBC PLAZA SINGAPURA,29307.523810000002,31463.667289999998,238839
3,68 ORCHARD ROAD DBS PLAZA SINGAPURA BRANCH SINGAPORE 238839,68,DBS PLAZA SINGAPURA BRANCH,1.300820718,103.8450673,103.8450673,238839,ORCHARD ROAD,DBS PLAZA SINGAPURA BRANCH,29307.523810000002,31463.667289999998,238839
4,68 ORCHARD ROAD STANDARD CHARTERED BANK PLAZA SINGAPURA SINGAPORE 238839,68,STANDARD CHARTERED BANK PLAZA SINGAPURA,1.30083413,103.8450727,103.8450727,238839,ORCHARD ROAD,STANDARD CHARTERED BANK PLAZA SINGAPURA,29308.132589999997,31465.15039,238839
5,68 ORCHARD ROAD PLAZA SINGAPURA SINGAPORE 238839,68,PLAZA SINGAPURA,1.300820718,103.8450673,103.8450673,238839,ORCHARD ROAD,PLAZA SINGAPURA,29307.52378,31463.667289999998,238839
6,68 ORCHARD ROAD GOLDEN VILLAGE (GV PLAZA) SINGAPORE 238839,68,GOLDEN VILLAGE (GV PLAZA),1.300820718,103.8450673,103.8450673,238839,ORCHARD ROAD,GOLDEN VILLAGE (GV PLAZA),29307.52378,31463.667289999998,238839
7,68 ORCHARD ROAD UOB PLAZA SINGAPURA SINGAPORE 238839,68,UOB PLAZA SINGAPURA,1.300820718,103.8450673,103.8450673,238839,ORCHARD ROAD,UOB PLAZA SINGAPURA,29307.523810000002,31463.667289999998,238839
0,115 BEDOK NORTH ROAD HDB-BEDOK SINGAPORE 460115,115,HDB-BEDOK,1.33143368,103.93686540000002,103.93686540000002,460115,BEDOK NORTH ROAD,HDB-BEDOK,39523.6949,34848.930239999994,460115
1,115 BEDOK NORTH ROAD PCF SPARKLETOTS PRESCHOOL @ FENGSHAN 115 (CC) SINGAPORE 460115,115,PCF SPARKLETOTS PRESCHOOL @ FENGSHAN 115 (CC),1.331433688,103.93686540000002,103.93686540000002,460115,BEDOK NORTH ROAD,PCF SPARKLETOTS PRESCHOOL @ FENGSHAN 115 (CC),39523.69569,34848.93109,460115
0,639 PUNGGOL DRIVE THE MEADOWS SINGAPORE 820639,639,THE MEADOWS,1.399446151,103.9160547,103.9160547,820639,PUNGGOL DRIVE,THE MEADOWS,37207.41214,42369.32322,820639
1,639 PUNGGOL DRIVE DBS PUNGGOL DRIVE SINGAPORE 820639,639,DBS PUNGGOL DRIVE,1.3994611780000001,103.9160545,103.9160545,820639,PUNGGOL DRIVE,DBS PUNGGOL DRIVE,37207.394889999996,42370.98491,820639
0,625 ELIAS ROAD ELIAS MALL SINGAPORE 510625,625,ELIAS MALL,1.378570261,103.9419891,103.9419891,510625,ELIAS ROAD,ELIAS MALL,40093.67635,40061.08679,510625
1,625 ELIAS ROAD MONTE KIDZ WORLD (PASIR RIS) SINGAPORE 510625,625,MONTE KIDZ WORLD (PASIR RIS),1.378607179,103.94191640000001,103.94191640000001,510625,ELIAS ROAD,MONTE KIDZ WORLD (PASIR RIS),40085.58152,40065.16858,510625
2,625 ELIAS ROAD CHERIE HEARTS KIDZ CAMPUS PTE. LTD. SINGAPORE 510625,625,CHERIE HEARTS KIDZ CAMPUS PTE. LTD.,1.37860239,103.9419782,103.9419782,510625,ELIAS ROAD,CHERIE HEARTS KIDZ CAMPUS PTE. LTD.,40092.4607,40064.6394,510625
0,65 AIRPORT BOULEVARD OCBC CHANGI AIRPORT TERMINAL 3 - BASEMENT 2 SOUTH (IN FRONT OF FOODCOURT) SINGAPORE 819663,65,OCBC CHANGI AIRPORT TERMINAL 3 - BASEMENT 2 SOUTH (IN FRONT OF FOODCOURT),1.355568558,103.98585209999999,103.98585209999999,819663,AIRPORT BOULEVARD,OCBC CHANGI AIRPORT TERMINAL 3 - BASEMENT 2 SOUTH (IN FRONT OF FOODCOURT),44975.25255,37517.93417,819663
1,65 AIRPORT BOULEVARD CHANGI AIRPORT TERMINAL 3 BUILDING SINGAPORE 819663,65,CHANGI AIRPORT TERMINAL 3 BUILDING,1.356716112,103.98651459999999,103.98651459999999,819663,AIRPORT BOULEVARD,CHANGI AIRPORT TERMINAL 3 BUILDING,45048.97555,37644.82997,819663
2,65 AIRPORT BOULEVARD CHANGI AIRPORT BUS TERMINAL 3 SINGAPORE 819663,65,CHANGI AIRPORT BUS TERMINAL 3,1.356406287,103.9862118,103.9862118,819663,AIRPORT BOULEVARD,CHANGI AIRPORT BUS TERMINAL 3,45015.28032,37610.56885,819663
3,65 AIRPORT BOULEVARD DBS CHANGI AIRPORT TERMINAL 3 ARRIVAL MEETING HALL SINGAPORE 819663,65,DBS CHANGI AIRPORT TERMINAL 3 ARRIVAL MEETING HALL,1.3543707409999999,103.9851696,103.9851696,819663,AIRPORT BOULEVARD,DBS CHANGI AIRPORT TERMINAL 3 ARRIVAL MEETING HALL,44899.31239,37385.480410000004,819663
4,65 AIRPORT BOULEVARD DBS CHANGI AIRPORT TERMINAL 3 DEPARTURE CHECK-IN HALL SINGAPORE 819663,65,DBS CHANGI AIRPORT TERMINAL 3 DEPARTURE CHECK-IN HALL,1.3543707409999999,103.9851696,103.9851696,819663,AIRPORT BOULEVARD,DBS CHANGI AIRPORT TERMINAL 3 DEPARTURE CHECK-IN HALL,44899.31239,37385.480410000004,819663
5,65 AIRPORT BOULEVARD OCBC CHANGI AIRPORT TERMINAL 3 - ARRIVAL HALL NORTH SINGAPORE 819663,65,OCBC CHANGI AIRPORT TERMINAL 3 - ARRIVAL HALL NORTH,1.355568558,103.98585209999999,103.98585209999999,819663,AIRPORT BOULEVARD,OCBC CHANGI AIRPORT TERMINAL 3 - ARRIVAL HALL NORTH,44975.25255,37517.93417,819663
6,65 AIRPORT BOULEVARD UOB CHANGI AIRPORT TERMINAL 3 - ARRIVAL HALL NORTH SINGAPORE 819663,65,UOB CHANGI AIRPORT TERMINAL 3 - ARRIVAL HALL NORTH,1.355889462,103.98588409999999,103.98588409999999,819663,AIRPORT BOULEVARD,UOB CHANGI AIRPORT TERMINAL 3 - ARRIVAL HALL NORTH,44978.81497,37553.41842,819663
7,65 AIRPORT BOULEVARD DBS CHANGI AIRPORT TERMINAL 3 BASEMENT 2 SINGAPORE 819663,65,DBS CHANGI AIRPORT TERMINAL 3 BASEMENT 2,1.3543707409999999,103.9851696,103.9851696,819663,AIRPORT BOULEVARD,DBS CHANGI AIRPORT TERMINAL 3 BASEMENT 2,44899.31239,37385.480410000004,819663
8,65 AIRPORT BOULEVARD HSBC CHANGI AIRPORT T3 ARRIVAL HALL SOUTH CENTRAL SINGAPORE 819663,65,HSBC CHANGI AIRPORT T3 ARRIVAL HALL SOUTH CENTRAL,1.356364149,103.9867699,103.9867699,819663,AIRPORT BOULEVARD,HSBC CHANGI AIRPORT T3 ARRIVAL HALL SOUTH CENTRAL,45077.38447,37605.9133,819663
9,65 AIRPORT BOULEVARD RAFFLES MEDICAL 24-HR CLINIC (CHANGI AIRPORT) SINGAPORE 819663,65,RAFFLES MEDICAL 24-HR CLINIC (CHANGI AIRPORT),1.356226404,103.986102,103.986102,819663,AIRPORT BOULEVARD,RAFFLES MEDICAL 24-HR CLINIC (CHANGI AIRPORT),45003.063010000005,37590.67743,819663
0,925 YISHUN CENTRAL 1 SINGAPORE 760925,925,NIL,1.428230851,103.8374503,103.8374503,760925,YISHUN CENTRAL 1,925 YISHUN CENTRAL 1 SINGAPORE 760925,28459.79392,45552.0282,760925
1,925 YISHUN CENTRAL 1 EAGER BEAVER SCHOOLHOUSE 1 PTE. LTD. SINGAPORE 760925,925,EAGER BEAVER SCHOOLHOUSE 1 PTE. LTD.,1.427505489,103.8371253,103.8371253,760925,YISHUN CENTRAL 1,EAGER BEAVER SCHOOLHOUSE 1 PTE. LTD.,28423.6301,45471.821189999995,760925
0,1 KIM SENG PROMENADE EMBASSY OF THE REPUBLIC OF KAZAKHSTAN SINGAPORE 237994,1,EMBASSY OF THE REPUBLIC OF KAZAKHSTAN,1.293410628,103.83185259999999,103.83185259999999,237994,KIM SENG PROMENADE,EMBASSY OF THE REPUBLIC OF KAZAKHSTAN,27836.84586,30644.294810000003,237994
1,1 KIM SENG PROMENADE HSBC GREAT WORD CITY SINGAPORE 237994,1,HSBC GREAT WORD CITY,1.293526325,103.8320712,103.8320712,237994,KIM SENG PROMENADE,HSBC GREAT WORD CITY,27861.18098,30657.087910000002,237994
2,1 KIM SENG PROMENADE GREAT WORLD CITY SINGAPORE 237994,1,GREAT WORLD CITY,1.293154929,103.831928,103.831928,237994,KIM SENG PROMENADE,GREAT WORLD CITY,27845.242860000002,30616.02092,237994
3,1 KIM SENG PROMENADE UOB GREAT WORLD CITY SINGAPORE 237994,1,UOB GREAT WORLD CITY,1.293475962,103.8319759,103.8319759,237994,KIM SENG PROMENADE,UOB GREAT WORLD CITY,27850.5676,30651.519089999998,237994
4,1 KIM SENG PROMENADE BRIGHTON MONTESSORI CENTRES PTE. LTD. SINGAPORE 237994,1,BRIGHTON MONTESSORI CENTRES PTE. LTD.,1.2938023509999999,103.8317579,103.8317579,237994,KIM SENG PROMENADE,BRIGHTON MONTESSORI CENTRES PTE. LTD.,27826.311210000003,30687.609510000002,237994
5,1 KIM SENG PROMENADE DBS GREAT WORLD CITY SINGAPORE 237994,1,DBS GREAT WORLD CITY,1.293475962,103.8319759,103.8319759,237994,KIM SENG PROMENADE,DBS GREAT WORLD CITY,27850.5676,30651.519089999998,237994
6,1 KIM SENG PROMENADE GOLDEN VILLAGE (GV GRAND) SINGAPORE 237994,1,GOLDEN VILLAGE (GV GRAND),1.293172204,103.83209529999999,103.83209529999999,237994,KIM SENG PROMENADE,GOLDEN VILLAGE (GV GRAND),27863.856910000002,30617.93113,237994
7,1 KIM SENG PROMENADE DBS GREAT WORLD CITY BRANCH SINGAPORE 237994,1,DBS GREAT WORLD CITY BRANCH,1.293475962,103.8319759,103.8319759,237994,KIM SENG PROMENADE,DBS GREAT WORLD CITY BRANCH,27850.5676,30651.519089999998,237994
0,101 CLEMENTI ROAD KENT VALE SINGAPORE 129787,101,KENT VALE,1.301760495,103.76937109999999,103.76937109999999,129787,CLEMENTI ROAD,KENT VALE,20883.21787,31567.67027,129787
1,101 CLEMENTI ROAD DBS NUS KENT VALE SINGAPORE 129787,101,DBS NUS KENT VALE,1.301761305,103.7693694,103.7693694,129787,CLEMENTI ROAD,DBS NUS KENT VALE,20883.03251,31567.7598,129787
0,3 TEMASEK BOULEVARD CITIBANK SUNTEC CITY MALL SINGAPORE 038983,3,CITIBANK SUNTEC CITY MALL,1.295711525,103.8585526,103.8585526,038983,TEMASEK BOULEVARD,CITIBANK SUNTEC CITY MALL,30808.3234,30898.73,038983
1,3 TEMASEK BOULEVARD OCBC SUNTECT CITY SINGAPORE 038983,3,OCBC SUNTECT CITY,1.29487905,103.8576755,103.8576755,038983,TEMASEK BOULEVARD,OCBC SUNTECT CITY,30710.7117,30806.67828,038983
2,3 TEMASEK BOULEVARD OCBC SUNTECT CITY BRANCH SINGAPORE 038983,3,OCBC SUNTECT CITY BRANCH,1.29487905,103.8576755,103.8576755,038983,TEMASEK BOULEVARD,OCBC SUNTECT CITY BRANCH,30710.7117,30806.67828,038983
3,3 TEMASEK BOULEVARD SUNTEC CITY POST OFFICE SINGAPORE 038983,3,SUNTEC CITY POST OFFICE,1.295032461,103.8598502,103.8598502,038983,TEMASEK BOULEVARD,SUNTEC CITY POST OFFICE,30952.73771,30823.644089999998,038983
4,3 TEMASEK BOULEVARD DBS SUNTEC CITY BRANCH SINGAPORE 038983,3,DBS SUNTEC CITY BRANCH,1.294846149,103.8577052,103.8577052,038983,TEMASEK BOULEVARD,DBS SUNTEC CITY BRANCH,30714.01902,30803.04028,038983
5,3 TEMASEK BOULEVARD HSBC SUNTEC CITY BRANCH SINGAPORE 038983,3,HSBC SUNTEC CITY BRANCH,1.294923915,103.85769930000001,103.85769930000001,038983,TEMASEK BOULEVARD,HSBC SUNTEC CITY BRANCH,30713.357539999997,30811.63923,038983
6,3 TEMASEK BOULEVARD UOB SUNTEC CITY BRANCH SINGAPORE 038983,3,UOB SUNTEC CITY BRANCH,1.294324165,103.860372,103.860372,038983,TEMASEK BOULEVARD,UOB SUNTEC CITY BRANCH,31010.8091,30745.32502,038983
7,3 TEMASEK BOULEVARD DBS SUNTEC CITY BASEMENT SINGAPORE 038983,3,DBS SUNTEC CITY BASEMENT,1.294885032,103.8577171,103.8577171,038983,TEMASEK BOULEVARD,DBS SUNTEC CITY BASEMENT,30715.34194,30807.339760000003,038983
8,3 TEMASEK BOULEVARD GOLDEN VILLAGE (GV SUNTEC CITY) SINGAPORE 038983,3,GOLDEN VILLAGE (GV SUNTEC CITY),1.294859902,103.86033370000001,103.86033370000001,038983,TEMASEK BOULEVARD,GOLDEN VILLAGE (GV SUNTEC CITY),31006.5461,30804.56397,038983
9,3 TEMASEK BOULEVARD SUNTEC CITY MALL SINGAPORE 038983,3,SUNTEC CITY MALL,1.295969927,103.8587455,103.8587455,038983,TEMASEK BOULEVARD,SUNTEC CITY MALL,30829.79612,30927.303060000002,038983
0,110 LENGKONG TIGA HDB-KEMBANGAN ESTATE SINGAPORE 410110,110,HDB-KEMBANGAN ESTATE,1.323653452,103.9108536,103.9108536,410110,LENGKONG TIGA,HDB-KEMBANGAN ESTATE,36628.87653,33988.52549,410110
1,110 LENGKONG TIGA DBS NTUC LENGKONG TIGA SINGAPORE 410110,110,DBS NTUC LENGKONG TIGA,1.323878365,103.910715,103.910715,410110,LENGKONG TIGA,DBS NTUC LENGKONG TIGA,36613.449089999995,34013.39469,410110
2,110 LENGKONG TIGA OCBC LENGKONG TIGA - FAIRPRICE SINGAPORE 410110,110,OCBC LENGKONG TIGA - FAIRPRICE,1.323976876,103.9106896,103.9106896,410110,LENGKONG TIGA,OCBC LENGKONG TIGA - FAIRPRICE,36610.62669,34024.287410000004,410110
0,202 HOUGANG STREET 21 KOVAN CITY SINGAPORE 530202,202,KOVAN CITY,1.3575861169999999,103.8840493,103.8840493,530202,HOUGANG STREET 21,KOVAN CITY,33645.74684,37740.55029,530202
1,202 HOUGANG STREET 21 KINDERLAND PRESCHOOL SINGAPORE 530202,202,KINDERLAND PRESCHOOL,1.3575755809999999,103.8840385,103.8840385,530202,HOUGANG STREET 21,KINDERLAND PRESCHOOL,33644.53799,37739.38521,530202
2,202 HOUGANG STREET 21 OCBC HOUGANG ST 21 - FAIRPRICE SINGAPORE 530202,202,OCBC HOUGANG ST 21 - FAIRPRICE,1.3575755840000001,103.8840385,103.8840385,530202,HOUGANG STREET 21,OCBC HOUGANG ST 21 - FAIRPRICE,33644.5379,37739.385610000005,530202
3,202 HOUGANG STREET 21 DBS NTUC HOUGANG STREET 21 SINGAPORE 530202,202,DBS NTUC HOUGANG STREET 21,1.3575755840000001,103.8840385,103.8840385,530202,HOUGANG STREET 21,DBS NTUC HOUGANG STREET 21,33644.5379,37739.385610000005,530202
0,849 YISHUN RING ROAD KHATIB CENTRAL SINGAPORE 760849,849,KHATIB CENTRAL,1.4169604980000001,103.8353478,103.8353478,760849,YISHUN RING ROAD,KHATIB CENTRAL,28225.821860000004,44305.809069999996,760849
1,849 YISHUN RING ROAD MLC (YISHUN) PTE. LTD. SINGAPORE 760849,849,MLC (YISHUN) PTE. LTD.,1.4169831659999998,103.8352182,103.8352182,760849,YISHUN RING ROAD,MLC (YISHUN) PTE. LTD.,28211.3982,44308.31551,760849
2,849 YISHUN RING ROAD UOB YISHUN RING ROAD SINGAPORE 760849,849,UOB YISHUN RING ROAD,1.4169121009999999,103.8353363,103.8353363,760849,YISHUN RING ROAD,UOB YISHUN RING ROAD,28224.543410000002,44300.45751,760849
3,849 YISHUN RING ROAD OCBC YISHUN RING ROAD SINGAPORE 760849,849,OCBC YISHUN RING ROAD,1.416972242,103.8352938,103.8352938,760849,YISHUN RING ROAD,OCBC YISHUN RING ROAD,28219.80986,44307.10763,760849
4,849 YISHUN RING ROAD DBS NTUC YISHUN STREET 81 SINGAPORE 760849,849,DBS NTUC YISHUN STREET 81,1.4169592430000002,103.8353519,103.8353519,760849,YISHUN RING ROAD,DBS NTUC YISHUN STREET 81,28226.281000000003,44305.6702,760849
5,849 YISHUN RING ROAD OCBC YISHUN RING ROAD - FAIRPRICE SINGAPORE 760849,849,OCBC YISHUN RING ROAD - FAIRPRICE,1.4169435280000002,103.8352843,103.8352843,760849,YISHUN RING ROAD,OCBC YISHUN RING ROAD - FAIRPRICE,28218.751510000002,44303.93261,760849
0,1 UPPER ALJUNIED LANE SINGAPORE 360001,1,NIL,1.334292424,103.87874620000001,103.87874620000001,360001,UPPER ALJUNIED LANE,1 UPPER ALJUNIED LANE SINGAPORE 360001,33055.61895,35164.84025,360001
1,1 UPPER ALJUNIED LANE DBS UPPER ALJUNIED ROAD SINGAPORE 360001,1,DBS UPPER ALJUNIED ROAD,1.334292423,103.8787911,103.8787911,360001,UPPER ALJUNIED LANE,DBS UPPER ALJUNIED ROAD,33060.6105,35164.840189999995,360001
0,33 SENGKANG WEST AVENUE SHAW THEATRES SELETAR SINGAPORE 797653,33,SHAW THEATRES SELETAR,1.39130623,103.8760851,103.8760851,797653,SENGKANG WEST AVENUE,SHAW THEATRES SELETAR,32759.35008,41469.13281,797653
1,33 SENGKANG WEST AVENUE DBS SENGKANG WEST AVENUE SINGAPORE 797653,33,DBS SENGKANG WEST AVENUE,1.391368809,103.87615699999999,103.87615699999999,797653,SENGKANG WEST AVENUE,DBS SENGKANG WEST AVENUE,32767.35027,41476.05267,797653
2,33 SENGKANG WEST AVENUE OCBC SELETAR MALL - FAIRPRICE SINGAPORE 797653,33,OCBC SELETAR MALL - FAIRPRICE,1.391406419,103.8761657,103.8761657,797653,SENGKANG WEST AVENUE,OCBC SELETAR MALL - FAIRPRICE,32768.3213,41480.211339999994,797653
3,33 SENGKANG WEST AVENUE DBS SELETAR MALL BRANCH SINGAPORE 797653,33,DBS SELETAR MALL BRANCH,1.3913154909999998,103.8762132,103.8762132,797653,SENGKANG WEST AVENUE,DBS SELETAR MALL BRANCH,32773.612960000006,41470.157139999996,797653
4,33 SENGKANG WEST AVENUE THE SELETAR MALL SINGAPORE 797653,33,THE SELETAR MALL,1.391393061,103.87606770000001,103.87606770000001,797653,SENGKANG WEST AVENUE,THE SELETAR MALL,32757.412119999997,41478.73414,797653
5,33 SENGKANG WEST AVENUE UOB THE SELETAR MALL SINGAPORE 797653,33,UOB THE SELETAR MALL,1.391501926,103.87617159999999,103.87617159999999,797653,SENGKANG WEST AVENUE,UOB THE SELETAR MALL,32768.98275,41490.772110000005,797653
0,22 DEMPSEY ROAD DEMPSEY CLUSTER (TANGLIN VILLAGE) SINGAPORE 249679,22,DEMPSEY CLUSTER (TANGLIN VILLAGE),1.306792403,103.8101858,103.8101858,249679,DEMPSEY ROAD,DEMPSEY CLUSTER (TANGLIN VILLAGE),25425.53761,32123.99435,249679
0,316B ANG MO KIO STREET 31 TECK GHEE VISTA SINGAPORE 563316,316B,TECK GHEE VISTA,1.364625403,103.847677,103.847677,563316,ANG MO KIO STREET 31,TECK GHEE VISTA,29597.92568,38518.86419,563316
0,29 BINJAI PARK BINJAI PARK SINGAPORE 589831,29,BINJAI PARK,1.336613787,103.7869748,103.7869748,589831,BINJAI PARK,BINJAI PARK,22842.43041,35421.52673,589831
1,29B BINJAI PARK BINJAI PARK SINGAPORE 589831,29B,BINJAI PARK,1.336614756,103.7869692,103.7869692,589831,BINJAI PARK,BINJAI PARK,22841.80701,35421.633910000004,589831
2,29A BINJAI PARK BINJAI PARK SINGAPORE 589831,29A,BINJAI PARK,1.336614756,103.7869692,103.7869692,589831,BINJAI PARK,BINJAI PARK,22841.80701,35421.633910000004,589831
0,53 ANG MO KIO AVENUE 3 THE LITTLE SKOOL-HOUSE INTERNATIONAL PTE LTD SINGAPORE 569933,53,THE LITTLE SKOOL-HOUSE INTERNATIONAL PTE LTD,1.369248917,103.8483992,103.8483992,569933,ANG MO KIO AVENUE 3,THE LITTLE SKOOL-HOUSE INTERNATIONAL PTE LTD,29678.293810000003,39030.109410000005,569933
1,53 ANG MO KIO AVENUE 3 CATHAY CINEPLEX AMK HUB SINGAPORE 569933,53,CATHAY CINEPLEX AMK HUB,1.369193179,103.84846479999999,103.84846479999999,569933,ANG MO KIO AVENUE 3,CATHAY CINEPLEX AMK HUB,29685.588760000002,39023.94618,569933
2,53 ANG MO KIO AVENUE 3 UOB ANG MO KIO BRANCH SINGAPORE 569933,53,UOB ANG MO KIO BRANCH,1.3692595019999998,103.84849770000001,103.84849770000001,569933,ANG MO KIO AVENUE 3,UOB ANG MO KIO BRANCH,29689.254810000002,39031.2799,569933
3,53 ANG MO KIO AVENUE 3 ABUNDANT LIFE FAMILY CHURCH SINGAPORE 569933,53,ABUNDANT LIFE FAMILY CHURCH,1.3692356140000002,103.8486932,103.8486932,569933,ANG MO KIO AVENUE 3,ABUNDANT LIFE FAMILY CHURCH,29711.007510000003,39028.6386,569933
4,53 ANG MO KIO AVENUE 3 OCBC AMK HUB SINGAPORE 569933,53,OCBC AMK HUB,1.369255114,103.8484641,103.8484641,569933,ANG MO KIO AVENUE 3,OCBC AMK HUB,29685.5083,39030.79459,569933
5,53 ANG MO KIO AVENUE 3 AMK HUB SINGAPORE 569933,53,AMK HUB,1.369223214,103.8484679,103.8484679,569933,ANG MO KIO AVENUE 3,AMK HUB,29685.937719999998,39027.26731,569933
6,53 ANG MO KIO AVENUE 3 DBS ANG MO KIO BRANCH SINGAPORE 569933,53,DBS ANG MO KIO BRANCH,1.369225221,103.84849320000001,103.84849320000001,569933,ANG MO KIO AVENUE 3,DBS ANG MO KIO BRANCH,29688.751180000003,39027.48929,569933
7,53 ANG MO KIO AVENUE 3 DBS NTUC AMK HUB SINGAPORE 569933,53,DBS NTUC AMK HUB,1.369225221,103.84849320000001,103.84849320000001,569933,ANG MO KIO AVENUE 3,DBS NTUC AMK HUB,29688.751180000003,39027.48929,569933
8,53 ANG MO KIO AVENUE 3 DBS ANG MO KIO - BASEMENT 1 SINGAPORE 569933,53,DBS ANG MO KIO - BASEMENT 1,1.3692362759999999,103.84872220000001,103.84872220000001,569933,ANG MO KIO AVENUE 3,DBS ANG MO KIO - BASEMENT 1,29714.23967,39028.71185,569933
0,19 TOH GUAN ROAD EAST TOH GUAN DORMITORY SINGAPORE 608568,19,TOH GUAN DORMITORY,1.338312349,103.75355040000001,103.75355040000001,608568,TOH GUAN ROAD EAST,TOH GUAN DORMITORY,19122.64552,35609.440669999996,608568
0,201B TAMPINES STREET 21 SINGAPORE 522201,201B,NIL,1.3534531580000002,103.9530099,103.9530099,522201,TAMPINES STREET 21,201B TAMPINES STREET 21 SINGAPORE 522201,41320.29635,37283.8181,522201
1,201B TAMPINES STREET 21 OCBC TAMPINES STREET 21 SINGAPORE 522201,201B,OCBC TAMPINES STREET 21,1.3534354530000001,103.9530237,103.9530237,522201,TAMPINES STREET 21,OCBC TAMPINES STREET 21,41321.8271,37281.860510000006,522201
0,4 LORONG 7 TOA PAYOH KIM KEAT COURT SINGAPORE 310004,4,KIM KEAT COURT,1.339044798,103.8555411,103.8555411,310004,LORONG 7 TOA PAYOH,KIM KEAT COURT,30473.124669999997,35690.29795,310004
1,4 LORONG 7 TOA PAYOH SKYLACE LEARNING HUB PTE LTD SINGAPORE 310004,4,SKYLACE LEARNING HUB PTE LTD,1.339044798,103.8555411,103.8555411,310004,LORONG 7 TOA PAYOH,SKYLACE LEARNING HUB PTE LTD,30473.125610000003,35690.298010000006,310004
0,34 GREENWOOD AVENUE HILLCREST PARK SINGAPORE 289236,34,HILLCREST PARK,1.331832465,103.8064925,103.8064925,289236,GREENWOOD AVENUE,HILLCREST PARK,25014.53151,34892.80021,289236
0,8 TELOK BLANGAH CRESCENT HDB-BUKIT MERAH SINGAPORE 090008,8,HDB-BUKIT MERAH,1.277795391,103.81934129999999,103.81934129999999,090008,TELOK BLANGAH CRESCENT,HDB-BUKIT MERAH,26444.44109,28917.6467,090008
0,249 JALAN KAYU JALAN KAYU ESTATE SINGAPORE 799473,249,JALAN KAYU ESTATE,1.396576911,103.87286040000001,103.87286040000001,799473,JALAN KAYU,JALAN KAYU ESTATE,32400.47325,42051.93185,799473
1,249A JALAN KAYU JALAN KAYU ESTATE SINGAPORE 799473,249A,JALAN KAYU ESTATE,1.39657691,103.87286040000001,103.87286040000001,799473,JALAN KAYU,JALAN KAYU ESTATE,32400.473289999998,42051.931789999995,799473
0,982 BUANGKOK CRESCENT SINGAPORE 530982,982,NIL,1.380850355,103.87930909999999,103.87930909999999,530982,BUANGKOK CRESCENT,982 BUANGKOK CRESCENT SINGAPORE 530982,33118.16453,40312.98155,530982
1,982 BUANGKOK CRESCENT DBS BUANGKOK CRESCENT SINGAPORE 530982,982,DBS BUANGKOK CRESCENT,1.380894989,103.8793232,103.8793232,530982,BUANGKOK CRESCENT,DBS BUANGKOK CRESCENT,33119.73069,40317.917010000005,530982
0,460 MANDAI ROAD MANDAI LODGE 1 SINGAPORE 729760,460,MANDAI LODGE 1,1.4105348430000002,103.76844670000001,103.76844670000001,729760,MANDAI ROAD,MANDAI LODGE 1,20780.668980000002,43595.3931,729760
0,866A TAMPINES STREET 83 EILEEN'S LEARNING CENTRE PTE. LTD. SINGAPORE 521866,866A,EILEEN'S LEARNING CENTRE PTE. LTD.,1.3554217730000002,103.9343152,103.9343152,521866,TAMPINES STREET 83,EILEEN'S LEARNING CENTRE PTE. LTD.,39239.7774,37501.40319,521866
1,866A TAMPINES STREET 83 OCBC TAMPINES CENTRAL COUMMUNITY CENTRE - CHEERS SINGAPORE 521866,866A,OCBC TAMPINES CENTRAL COUMMUNITY CENTRE - CHEERS,1.3553930630000002,103.93442929999999,103.93442929999999,521866,TAMPINES STREET 83,OCBC TAMPINES CENTRAL COUMMUNITY CENTRE - CHEERS,39252.47709,37498.22911,521866
2,866A TAMPINES STREET 83 TAMPINES CENTRAL COMMUNITY COMPLEX SINGAPORE 521866,866A,TAMPINES CENTRAL COMMUNITY COMPLEX,1.35528927,103.9345921,103.9345921,521866,TAMPINES STREET 83,TAMPINES CENTRAL COMMUNITY COMPLEX,39270.59111,37486.75297,521866
3,866A TAMPINES STREET 83 DBS NTUC TAMPINES CENTRAL COMMUNITY CLUB SINGAPORE 521866,866A,DBS NTUC TAMPINES CENTRAL COMMUNITY CLUB,1.3553930630000002,103.93442929999999,103.93442929999999,521866,TAMPINES STREET 83,DBS NTUC TAMPINES CENTRAL COMMUNITY CLUB,39252.47709,37498.22911,521866
4,866A TAMPINES STREET 83 OCBC TAMPINES CENTRAL COUMMUNITY CENTRE - FAIRPRICE SINGAPORE 521866,866A,OCBC TAMPINES CENTRAL COUMMUNITY CENTRE - FAIRPRICE,1.3553930630000002,103.93442929999999,103.93442929999999,521866,TAMPINES STREET 83,OCBC TAMPINES CENTRAL COUMMUNITY CENTRE - FAIRPRICE,39252.47709,37498.22911,521866
0,317 TANAH MERAH COAST ROAD CHANGI AIR BASE (EAST) SINGAPORE 498820,317,CHANGI AIR BASE (EAST),1.327366021,104.0042442,104.0042442,498820,TANAH MERAH COAST ROAD,CHANGI AIR BASE (EAST),47022.3068,34399.56461,498820
0,280 TAMPINES STREET 22 HDB-TAMPINES SINGAPORE 520280,280,HDB-TAMPINES,1.3475351969999998,103.95170279999999,103.95170279999999,520280,TAMPINES STREET 22,HDB-TAMPINES,41174.85784,36629.43167,520280
0,391A ORCHARD ROAD NGEE ANN CITY SINGAPORE 238873,391A,NGEE ANN CITY,1.302424172,103.8346761,103.8346761,238873,ORCHARD ROAD,NGEE ANN CITY,28151.082489999997,31640.966,238873
0,501 BUKIT TIMAH ROAD CLUNY COURT SINGAPORE 259760,501,CLUNY COURT,1.322573169,103.8142455,103.8142455,259760,BUKIT TIMAH ROAD,CLUNY COURT,25877.36106,33868.94667,259760
0,512 BISHAN STREET 13 SINGAPORE 570512,512,NIL,1.34962235,103.8498817,103.8498817,570512,BISHAN STREET 13,512 BISHAN STREET 13 SINGAPORE 570512,29843.290460000004,36859.904630000005,570512
1,512 BISHAN STREET 13 HDB BISHAN BRANCH SINGAPORE 570512,512,HDB BISHAN BRANCH,1.349622352,103.8498817,103.8498817,570512,BISHAN STREET 13,HDB BISHAN BRANCH,29843.29007,36859.90494,570512
0,1 JALAN PAPAN SINGAPORE 619392,1,NIL,1.320876359,103.72754599999999,103.72754599999999,619392,JALAN PAPAN,1 JALAN PAPAN SINGAPORE 619392,16228.549009999999,33681.56452,619392
1,1 JALAN PAPAN DBS TUAS RECREATION CLUB SINGAPORE 619392,1,DBS TUAS RECREATION CLUB,1.321108264,103.727325,103.727325,619392,JALAN PAPAN,DBS TUAS RECREATION CLUB,16203.962480000002,33707.20837,619392
2,1 JALAN PAPAN TERUSAN RECREATION CENTRE SINGAPORE 619392,1,TERUSAN RECREATION CENTRE,1.321078451,103.727298,103.727298,619392,JALAN PAPAN,TERUSAN RECREATION CENTRE,16200.95439,33703.91194,619392
0,7 GREENDALE AVENUE GREENDALE COURT SINGAPORE 289504,7,GREENDALE COURT,1.3316647670000001,103.8070338,103.8070338,289504,GREENDALE AVENUE,GREENDALE COURT,25074.77539,34874.256310000004,289504
0,306 UBI AVENUE 1 SINGAPORE 400306,306,NIL,1.329871172,103.9019304,103.9019304,400306,UBI AVENUE 1,306 UBI AVENUE 1 SINGAPORE 400306,35635.787919999995,34676.0203,400306
1,306 UBI AVENUE 1 BAO TA STUDENT CARE CENTRE (PTE) LTD SINGAPORE 400306,306,BAO TA STUDENT CARE CENTRE (PTE) LTD,1.329872197,103.9019297,103.9019297,400306,UBI AVENUE 1,BAO TA STUDENT CARE CENTRE (PTE) LTD,35635.718389999995,34676.13359,400306
2,306 UBI AVENUE 1 AMAZING STAR MONTESSORI HOUSE (UBI) SINGAPORE 400306,306,AMAZING STAR MONTESSORI HOUSE (UBI),1.329872197,103.9019297,103.9019297,400306,UBI AVENUE 1,AMAZING STAR MONTESSORI HOUSE (UBI),35635.718389999995,34676.13359,400306
3,306 UBI AVENUE 1 OCBC UBI AVENUE 1 - GIANT SINGAPORE 400306,306,OCBC UBI AVENUE 1 - GIANT,1.329872195,103.9019297,103.9019297,400306,UBI AVENUE 1,OCBC UBI AVENUE 1 - GIANT,35635.71751,34676.13341,400306
4,306 UBI AVENUE 1 SPRING BRAINY KIDZ GROUP PTE. LTD. SINGAPORE 400306,306,SPRING BRAINY KIDZ GROUP PTE. LTD.,1.329872197,103.9019297,103.9019297,400306,UBI AVENUE 1,SPRING BRAINY KIDZ GROUP PTE. LTD.,35635.718389999995,34676.13359,400306
0,498 JURONG WEST STREET 41 HDB-JURONG WEST SINGAPORE 640498,498,HDB-JURONG WEST,1.348333358,103.72430729999999,103.72430729999999,640498,JURONG WEST STREET 41,HDB-JURONG WEST,15868.25225,36717.639839999996,640498
1,498 JURONG WEST STREET 41 DBS NTUC JURONG WEST STREET 41 SINGAPORE 640498,498,DBS NTUC JURONG WEST STREET 41,1.3483333569999998,103.72430729999999,103.72430729999999,640498,JURONG WEST STREET 41,DBS NTUC JURONG WEST STREET 41,15868.2521,36717.63981,640498
2,498 JURONG WEST STREET 41 OCBC JURONG WEST ST 41 - FAIRPRICE SINGAPORE 640498,498,OCBC JURONG WEST ST 41 - FAIRPRICE,1.3483333569999998,103.72430729999999,103.72430729999999,640498,JURONG WEST STREET 41,OCBC JURONG WEST ST 41 - FAIRPRICE,15868.2521,36717.63981,640498
0,10 BUKIT BATOK CENTRAL BUKIT BATOK MRT STATION SINGAPORE 659958,10,BUKIT BATOK MRT STATION (NS2),1.349033312,103.7495665,103.7495665,659958,BUKIT BATOK CENTRAL,BUKIT BATOK MRT STATION (NS2),18679.32232,36794.92602,659958
1,10 BUKIT BATOK CENTRAL OCBC BUKIT BATOK MRT STATION - FAIRPRICE SINGAPORE 659958,10,OCBC BUKIT BATOK MRT STATION - FAIRPRICE,1.348932281,103.7494922,103.7494922,659958,BUKIT BATOK CENTRAL,OCBC BUKIT BATOK MRT STATION - FAIRPRICE,18671.06046,36783.7548,659958
2,10 BUKIT BATOK CENTRAL DBS BUKIT BATOK MRT STATION SINGAPORE 659958,10,DBS BUKIT BATOK MRT STATION,1.348710811,103.7493345,103.7493345,659958,BUKIT BATOK CENTRAL,DBS BUKIT BATOK MRT STATION,18653.506390000002,36759.26631,659958
3,10 BUKIT BATOK CENTRAL OCBC BUKIT BATOK MRT SINGAPORE 659958,10,OCBC BUKIT BATOK MRT,1.3490353480000001,103.749526,103.749526,659958,BUKIT BATOK CENTRAL,OCBC BUKIT BATOK MRT,18674.82065,36795.15131,659958
4,10 BUKIT BATOK CENTRAL DBS NTUC BUKIT BATOK MRT STATION SINGAPORE 659958,10,DBS NTUC BUKIT BATOK MRT STATION,1.348710811,103.7493345,103.7493345,659958,BUKIT BATOK CENTRAL,DBS NTUC BUKIT BATOK MRT STATION,18653.506390000002,36759.26631,659958
5,10 BUKIT BATOK CENTRAL UOB BUKIT BATOK MRT STATION SINGAPORE 659958,10,UOB BUKIT BATOK MRT STATION,1.349034109,103.7495668,103.7495668,659958,BUKIT BATOK CENTRAL,UOB BUKIT BATOK MRT STATION,18679.3541,36795.0141,659958
0,166 BUKIT MERAH CENTRAL SINGAPORE 150166,166,NIL,1.283092626,103.8176672,103.8176672,150166,BUKIT MERAH CENTRAL,166 BUKIT MERAH CENTRAL SINGAPORE 150166,26258.13063,29503.388660000004,150166
1,166 BUKIT MERAH CENTRAL HDB BUKIT MERAH BRANCH SINGAPORE 150166,166,HDB BUKIT MERAH BRANCH,1.283150928,103.8176897,103.8176897,150166,BUKIT MERAH CENTRAL,HDB BUKIT MERAH BRANCH,26260.63519,29509.83538,150166
2,166 BUKIT MERAH CENTRAL TANJONG PAGAR TOWN COUNCIL SINGAPORE 150166,166,TANJONG PAGAR TOWN COUNCIL,1.283119499,103.8176429,103.8176429,150166,BUKIT MERAH CENTRAL,TANJONG PAGAR TOWN COUNCIL,26255.422459999998,29506.36022,150166
3,166 BUKIT MERAH CENTRAL OCBC BUKIT MERAH CENTRAL - FAIRPRICE SINGAPORE 150166,166,OCBC BUKIT MERAH CENTRAL - FAIRPRICE,1.283119499,103.8176429,103.8176429,150166,BUKIT MERAH CENTRAL,OCBC BUKIT MERAH CENTRAL - FAIRPRICE,26255.42249,29506.36019,150166
4,166 BUKIT MERAH CENTRAL UOB BUKIT MERAH CENTRAL SINGAPORE 150166,166,UOB BUKIT MERAH CENTRAL,1.2830566429999999,103.8176637,103.8176637,150166,BUKIT MERAH CENTRAL,UOB BUKIT MERAH CENTRAL,26257.73921,29499.4099,150166
5,166 BUKIT MERAH CENTRAL DBS NTUC BUKIT MERAH CENTRAL SINGAPORE 150166,166,DBS NTUC BUKIT MERAH CENTRAL,1.283098547,103.8176949,103.8176949,150166,BUKIT MERAH CENTRAL,DBS NTUC BUKIT MERAH CENTRAL,26261.21439,29504.04339,150166
0,628 SENJA ROAD SENJA CENTRE SINGAPORE 670628,628,SENJA CENTRE,1.385096024,103.7602184,103.7602184,670628,SENJA ROAD,SENJA CENTRE,19864.8887,40782.52215,670628
1,628 SENJA ROAD DBS NTUC SENJA ROAD SINGAPORE 670628,628,DBS NTUC SENJA ROAD,1.385096025,103.7602184,103.7602184,670628,SENJA ROAD,DBS NTUC SENJA ROAD,19864.8887,40782.52221,670628
2,628 SENJA ROAD OCBC SENJA ROAD - FAIRPRICE SINGAPORE 670628,628,OCBC SENJA ROAD - FAIRPRICE,1.385096025,103.7602184,103.7602184,670628,SENJA ROAD,OCBC SENJA ROAD - FAIRPRICE,19864.8887,40782.52221,670628
0,106 HOUGANG AVENUE 1 HDB-HOUGANG SINGAPORE 530106,106,HDB-HOUGANG,1.353702971,103.8906808,103.8906808,530106,HOUGANG AVENUE 1,HDB-HOUGANG,34383.76324,37311.18813,530106
1,106 HOUGANG AVENUE 1 DBS HOUGANG AVENUE 1 SINGAPORE 530106,106,DBS HOUGANG AVENUE 1,1.353703135,103.8906808,103.8906808,530106,HOUGANG AVENUE 1,DBS HOUGANG AVENUE 1,34383.76639,37311.2062,530106
2,106 HOUGANG AVENUE 1 UOB HOUGANG AVENUE 1 SINGAPORE 530106,106,UOB HOUGANG AVENUE 1,1.353703135,103.8906808,103.8906808,530106,HOUGANG AVENUE 1,UOB HOUGANG AVENUE 1,34383.76639,37311.2062,530106
3,106 HOUGANG AVENUE 1 OCBC HOUGANG AVE 1 - 7 ELEVEN SINGAPORE 530106,106,OCBC HOUGANG AVE 1 - 7 ELEVEN,1.353703135,103.8906808,103.8906808,530106,HOUGANG AVENUE 1,OCBC HOUGANG AVE 1 - 7 ELEVEN,34383.76639,37311.2062,530106
0,1 JALAN ANAK BUKIT BUKIT TIMAH PLAZA SINGAPORE 588996,1,BUKIT TIMAH PLAZA,1.3386567759999999,103.7785605,103.7785605,588996,JALAN ANAK BUKIT,BUKIT TIMAH PLAZA,21906.00646,35647.44938,588996
1,1 JALAN ANAK BUKIT DBS BUKIT TIMAH BRANCH SINGAPORE 588996,1,DBS BUKIT TIMAH BRANCH,1.338631653,103.77858540000001,103.77858540000001,588996,JALAN ANAK BUKIT,DBS BUKIT TIMAH BRANCH,21908.78461,35644.6713,588996
2,1 JALAN ANAK BUKIT UOB BUKIT TIMAH PLAZA SINGAPORE 588996,1,UOB BUKIT TIMAH PLAZA,1.338631653,103.77858540000001,103.77858540000001,588996,JALAN ANAK BUKIT,UOB BUKIT TIMAH PLAZA,21908.78461,35644.6713,588996
3,1 JALAN ANAK BUKIT DBS NTUC BUKIT TIMAH PLAZA SINGAPORE 588996,1,DBS NTUC BUKIT TIMAH PLAZA,1.338631653,103.77858540000001,103.77858540000001,588996,JALAN ANAK BUKIT,DBS NTUC BUKIT TIMAH PLAZA,21908.78461,35644.6713,588996
4,1 JALAN ANAK BUKIT OCBC BUKIT TIMAH PLAZA - FAIRPRICE SINGAPORE 588996,1,OCBC BUKIT TIMAH PLAZA - FAIRPRICE,1.338631653,103.77858540000001,103.77858540000001,588996,JALAN ANAK BUKIT,OCBC BUKIT TIMAH PLAZA - FAIRPRICE,21908.78461,35644.6713,588996
0,30 GREENWOOD AVENUE HILLCREST PARK SINGAPORE 289230,30,HILLCREST PARK,1.3317609209999999,103.80658670000001,103.80658670000001,289230,GREENWOOD AVENUE,HILLCREST PARK,25025.02018,34884.88906,289230
0,1B MURAI FARMWAY DBS MURAI LODGE I SINGAPORE 709155,1B,DBS MURAI LODGE I,1.384592585,103.6947788,103.6947788,709155,MURAI FARMWAY,DBS MURAI LODGE I,12582.277,40727.179410000004,709155
1,1B MURAI FARMWAY MURAI LODGE I SINGAPORE 709155,1B,MURAI LODGE I,1.384527384,103.6953914,103.6953914,709155,MURAI FARMWAY,MURAI LODGE I,12650.456390000001,40719.96583,709155
0,122 ANG MO KIO AVENUE 3 HDB-ANG MO KIO SINGAPORE 560122,122,HDB-ANG MO KIO,1.3701886069999998,103.8434132,103.8434132,560122,ANG MO KIO AVENUE 3,HDB-ANG MO KIO,29123.412439999996,39134.01256,560122
0,761 YISHUN STREET 72 HDB-YISHUN SINGAPORE 760761,761,HDB-YISHUN,1.425398425,103.833259,103.833259,760761,YISHUN STREET 72,HDB-YISHUN,27993.3738,45238.83232,760761
1,761 YISHUN STREET 72 UOB YISHUN STREET 72 SINGAPORE 760761,761,UOB YISHUN STREET 72,1.4253984240000002,103.833259,103.833259,760761,YISHUN STREET 72,UOB YISHUN STREET 72,27993.3738,45238.83229,760761
0,934 EAST COAST ROAD SINGAPORE 459125,934,NIL,1.312307573,103.9252345,103.9252345,459125,EAST COAST ROAD,934 EAST COAST ROAD SINGAPORE 459125,38229.37735,32734.00942,459125
1,934 EAST COAST ROAD OCBC EAST COAST ROAD - FAIRPRICE SINGAPORE 459125,934,OCBC EAST COAST ROAD - FAIRPRICE,1.312307522,103.9252345,103.9252345,459125,EAST COAST ROAD,OCBC EAST COAST ROAD - FAIRPRICE,38229.3755,32734.00379,459125
2,934 EAST COAST ROAD DBS NTUC EAST COAST ROAD SINGAPORE 459125,934,DBS NTUC EAST COAST ROAD,1.312307522,103.9252345,103.9252345,459125,EAST COAST ROAD,DBS NTUC EAST COAST ROAD,38229.3755,32734.00379,459125
0,442 JURONG WEST AVENUE 1 HDB-JURONG WEST SINGAPORE 640442,442,HDB-JURONG WEST,1.351518475,103.71949649999999,103.71949649999999,640442,JURONG WEST AVENUE 1,HDB-JURONG WEST,15332.87485,37069.85908,640442
0,131 KILLINEY ROAD OCBC KILLINEY ROAD - FAIRPRICE SINGAPORE 239571,131,OCBC KILLINEY ROAD - FAIRPRICE,1.297275314,103.8385339,103.8385339,239571,KILLINEY ROAD,OCBC KILLINEY ROAD - FAIRPRICE,28580.4218,31071.6324,239571
1,131 KILLINEY ROAD CGH BUILDING SINGAPORE 239571,131,CGH BUILDING,1.297275314,103.8385339,103.8385339,239571,KILLINEY ROAD,CGH BUILDING,28580.421830000003,31071.63243,239571
2,131 KILLINEY ROAD DBS NTUC GRAND COURT SINGAPORE 239571,131,DBS NTUC GRAND COURT,1.297275314,103.8385339,103.8385339,239571,KILLINEY ROAD,DBS NTUC GRAND COURT,28580.4218,31071.6324,239571
0,108 MCNAIR ROAD MCNAIR SPRING SINGAPORE 321108,108,MCNAIR SPRING,1.321619038,103.85938270000001,103.85938270000001,321108,MCNAIR ROAD,MCNAIR SPRING,30900.68025,33763.450789999995,321108
0,25 GHIM MOH LINK GHIM MOH VALLEY SINGAPORE 270025,25,GHIM MOH VALLEY,1.3081474690000001,103.7862552,103.7862552,270025,GHIM MOH LINK,GHIM MOH VALLEY,22762.287480000003,32273.86782,270025
1,25 GHIM MOH LINK DBS GHIM MOH ROAD SINGAPORE 270025,25,DBS GHIM MOH ROAD,1.308118863,103.78604940000001,103.78604940000001,270025,GHIM MOH LINK,DBS GHIM MOH ROAD,22739.37891,32270.705210000004,270025
0,1 ORCHID CLUB ROAD SINGAPORE ORCHID COUNTRY CLUB SINGAPORE 769162,1,SINGAPORE ORCHID COUNTRY CLUB,1.4155907030000001,103.8473342,103.8473342,769162,ORCHID CLUB ROAD,SINGAPORE ORCHID COUNTRY CLUB,29559.73372,44154.3486,769162
1,1 ORCHID CLUB ROAD ORCHID COUNTRY CLUB SINGAPORE 769162,1,ORCHID COUNTRY CLUB,1.411103576,103.8442145,103.8442145,769162,ORCHID CLUB ROAD,ORCHID COUNTRY CLUB,29212.560739999997,43658.18295,769162
2,1 ORCHID CLUB ROAD OCBC ORCHID COUNTRY CLUB - FAIRPRICE SINGAPORE 769162,1,OCBC ORCHID COUNTRY CLUB - FAIRPRICE,1.411459129,103.8451309,103.8451309,769162,ORCHID CLUB ROAD,OCBC ORCHID COUNTRY CLUB - FAIRPRICE,29314.54989,43697.4986,769162
3,1 ORCHID CLUB ROAD DBS NTUC ORCHID COUNTRY CLUB SINGAPORE 769162,1,DBS NTUC ORCHID COUNTRY CLUB,1.411198191,103.8444383,103.8444383,769162,ORCHID CLUB ROAD,DBS NTUC ORCHID COUNTRY CLUB,29237.470289999997,43668.64501,769162
4,1 ORCHID CLUB ROAD THE LITTLE SKOOL-HOUSE INTERNATIONAL PTE LTD SINGAPORE 769162,1,THE LITTLE SKOOL-HOUSE INTERNATIONAL PTE LTD,1.4110359909999999,103.84403990000001,103.84403990000001,769162,ORCHID CLUB ROAD,THE LITTLE SKOOL-HOUSE INTERNATIONAL PTE LTD,29193.13141,43650.7096,769162
0,1 WOODLANDS ROAD JUNCTION 10 SINGAPORE 677899,1,JUNCTION 10,1.380605125,103.7600416,103.7600416,677899,WOODLANDS ROAD,JUNCTION 10,19845.19208,40285.94149,677899
1,1 WOODLANDS ROAD DBS JUNCTION 10 SINGAPORE 677899,1,DBS JUNCTION 10,1.38018163,103.7604193,103.7604193,677899,WOODLANDS ROAD,DBS JUNCTION 10,19887.22641,40239.11229,677899
2,1 WOODLANDS ROAD NEW LIFE COMMUNITY SERVICES SINGAPORE 677899,1,NEW LIFE COMMUNITY SERVICES,1.3805213680000001,103.7600594,103.7600594,677899,WOODLANDS ROAD,NEW LIFE COMMUNITY SERVICES,19847.177480000002,40276.68007,677899
3,1 WOODLANDS ROAD MINDCHAMPS PRESCHOOL @JUNCTION 10 PTE LIMITED SINGAPORE 677899,1,MINDCHAMPS PRESCHOOL @JUNCTION 10 PTE LIMITED,1.38055128,103.76010699999999,103.76010699999999,677899,WOODLANDS ROAD,MINDCHAMPS PRESCHOOL @JUNCTION 10 PTE LIMITED,19852.46917,40279.98736,677899
0,4 TAMPINES CENTRAL 5 UOB TAMPINES MALL SINGAPORE 529510,4,UOB TAMPINES MALL,1.3526723219999999,103.944388,103.944388,529510,TAMPINES CENTRAL 5,UOB TAMPINES MALL,40360.7746,37197.43148,529510
1,4 TAMPINES CENTRAL 5 GOLDEN VILLAGE (GV TAMPINES) SINGAPORE 529510,4,GOLDEN VILLAGE (GV TAMPINES),1.352504683,103.9446826,103.9446826,529510,TAMPINES CENTRAL 5,GOLDEN VILLAGE (GV TAMPINES),40393.56046,37178.896310000004,529510
2,4 TAMPINES CENTRAL 5 UOB TAMPINES MALL AUTOLOBBY SINGAPORE 529510,4,UOB TAMPINES MALL AUTOLOBBY,1.3526723219999999,103.944388,103.944388,529510,TAMPINES CENTRAL 5,UOB TAMPINES MALL AUTOLOBBY,40360.7746,37197.43148,529510
3,4 TAMPINES CENTRAL 5 OCBC TAMPINES MALL SINGAPORE 529510,4,OCBC TAMPINES MALL,1.352593614,103.944786,103.944786,529510,TAMPINES CENTRAL 5,OCBC TAMPINES MALL,40405.066530000004,37188.73032,529510
4,4 TAMPINES CENTRAL 5 TAMPINES MALL SINGAPORE 529510,4,TAMPINES MALL,1.3525802519999999,103.94469620000001,103.94469620000001,529510,TAMPINES CENTRAL 5,TAMPINES MALL,40395.07976,37187.252389999994,529510
0,180 KITCHENER ROAD OCBC CITY SQUARE MALL - BRANCH SINGAPORE 208539,180,OCBC CITY SQUARE MALL - BRANCH,1.311382719,103.85662690000001,103.85662690000001,208539,KITCHENER ROAD,OCBC CITY SQUARE MALL - BRANCH,30593.990510000003,32631.568010000003,208539
1,180 KITCHENER ROAD GOLDEN VILLAGE (GV CITY SQUARE) SINGAPORE 208539,180,GOLDEN VILLAGE (GV CITY SQUARE),1.3113051709999999,103.85642179999999,103.85642179999999,208539,KITCHENER ROAD,GOLDEN VILLAGE (GV CITY SQUARE),30571.16667,32622.993,208539
2,180 KITCHENER ROAD MINDCHAMPS PRESCHOOL @ CITY SQUARE PTE. LTD SINGAPORE 208539,180,MINDCHAMPS PRESCHOOL @ CITY SQUARE PTE. LTD,1.311393494,103.8564871,103.8564871,208539,KITCHENER ROAD,MINDCHAMPS PRESCHOOL @ CITY SQUARE PTE. LTD,30578.43831,32632.75939,208539
3,180 KITCHENER ROAD CITY SQUARE POST OFFICE SINGAPORE 208539,180,CITY SQUARE POST OFFICE,1.311273247,103.8566483,103.8566483,208539,KITCHENER ROAD,CITY SQUARE POST OFFICE,30596.37176,32619.46327,208539
4,180 KITCHENER ROAD DBS CITY SQUARE MALL SINGAPORE 208539,180,DBS CITY SQUARE MALL,1.3111960329999999,103.85664809999999,103.85664809999999,208539,KITCHENER ROAD,DBS CITY SQUARE MALL,30596.3572,32610.9253,208539
5,180 KITCHENER ROAD UOB CITY SQUARE MALL AUTOLOBBY SINGAPORE 208539,180,UOB CITY SQUARE MALL AUTOLOBBY,1.31138865,103.8566262,103.8566262,208539,KITCHENER ROAD,UOB CITY SQUARE MALL AUTOLOBBY,30593.9186,32632.223889999997,208539
6,180 KITCHENER ROAD CITIBANK CITY SQUARE MALL SINGAPORE 208539,180,CITIBANK CITY SQUARE MALL,1.311351699,103.8567241,103.8567241,208539,KITCHENER ROAD,CITIBANK CITY SQUARE MALL,30604.8082,32628.138160000002,208539
7,180 KITCHENER ROAD CITY SQUARE MALL SINGAPORE 208539,180,CITY SQUARE MALL,1.31147745,103.8567808,103.8567808,208539,KITCHENER ROAD,CITY SQUARE MALL,30611.11883,32642.04303,208539
8,180 KITCHENER ROAD LEAP SCHOOLHOUSE @ CITY SQUARE MALL PTE LTD SINGAPORE 208539,180,LEAP SCHOOLHOUSE @ CITY SQUARE MALL PTE LTD,1.311393494,103.8564871,103.8564871,208539,KITCHENER ROAD,LEAP SCHOOLHOUSE @ CITY SQUARE MALL PTE LTD,30578.43831,32632.75939,208539
9,180 KITCHENER ROAD OCBC CITY SQUARE MALL - FAIRPRICE SINGAPORE 208539,180,OCBC CITY SQUARE MALL - FAIRPRICE,1.311382719,103.85662690000001,103.85662690000001,208539,KITCHENER ROAD,OCBC CITY SQUARE MALL - FAIRPRICE,30593.990510000003,32631.568010000003,208539
0,599 GEYLANG ROAD GEYLANG CONSERVATION AREA SINGAPORE 389538,599,GEYLANG CONSERVATION AREA,1.314206082,103.8866995,103.8866995,389538,GEYLANG ROAD,GEYLANG CONSERVATION AREA,33940.783039999995,32943.81238,389538
1,599A GEYLANG ROAD GEYLANG CONSERVATION AREA SINGAPORE 389538,599A,GEYLANG CONSERVATION AREA,1.314206082,103.8866995,103.8866995,389538,GEYLANG ROAD,GEYLANG CONSERVATION AREA,33940.78301,32943.812410000006,389538
0,52 CHIN SWEE ROAD HDB-CENTRAL AREA SINGAPORE 160052,52,HDB-CENTRAL AREA,1.287082783,103.8415801,103.8415801,160052,CHIN SWEE ROAD,HDB-CENTRAL AREA,28919.438830000003,29944.59577,160052
0,896 DUNEARN ROAD LINK@896 SINGAPORE 589472,896,LINK@896,1.33662109,103.78378590000001,103.78378590000001,589472,DUNEARN ROAD,LINK@896,22487.53455,35422.341210000006,589472
1,896 DUNEARN ROAD CONSULATE-GENERAL OF GREECE SINGAPORE 589472,896,CONSULATE-GENERAL OF GREECE,1.336640232,103.7837431,103.7837431,589472,DUNEARN ROAD,CONSULATE-GENERAL OF GREECE,22482.77203,35424.45788,589472
2,896 DUNEARN ROAD CHILDFIRST@DUNEARN PTE. LTD. SINGAPORE 589472,896,CHILDFIRST@DUNEARN PTE. LTD.,1.336697264,103.7837234,103.7837234,589472,DUNEARN ROAD,CHILDFIRST@DUNEARN PTE. LTD.,22480.58338,35430.76425,589472
3,896 DUNEARN ROAD EMBASSY OF THE REPUBLIC OF COSTA RICA SINGAPORE 589472,896,EMBASSY OF THE REPUBLIC OF COSTA RICA,1.336603792,103.7838767,103.7838767,589472,DUNEARN ROAD,EMBASSY OF THE REPUBLIC OF COSTA RICA,22497.63703,35420.42822,589472
0,370 ALEXANDRA ROAD DBS ANCHORPOINT SINGAPORE 159953,370,DBS ANCHORPOINT,1.289011589,103.80533100000001,103.80533100000001,159953,ALEXANDRA ROAD,DBS ANCHORPOINT,24885.2159,30157.88889,159953
1,370 ALEXANDRA ROAD UOB ANCHORPOINT SINGAPORE 159953,370,UOB ANCHORPOINT,1.28861469,103.80501,103.80501,159953,ALEXANDRA ROAD,UOB ANCHORPOINT,24849.4909,30114.00219,159953
2,370 ALEXANDRA ROAD ANCHORPOINT SHOPPING CENTRE SINGAPORE 159953,370,ANCHORPOINT SHOPPING CENTRE,1.28861469,103.80501,103.80501,159953,ALEXANDRA ROAD,ANCHORPOINT SHOPPING CENTRE,24849.49094,30114.00222,159953
0,686C WOODLANDS DRIVE 73 HDB-WOODLANDS SINGAPORE 733686,686C,HDB-WOODLANDS,1.4421448319999999,103.80686999999999,103.80686999999999,733686,WOODLANDS DRIVE 73,HDB-WOODLANDS,25056.6883,47090.58295,733686
0,310 GEYLANG ROAD SINGAPORE 389349,310,NIL,1.312451315,103.87962209999999,103.87962209999999,389349,GEYLANG ROAD,310 GEYLANG ROAD SINGAPORE 389349,33153.14475,32749.763460000002,389349
1,310A GEYLANG ROAD SINGAPORE 389349,310A,NIL,1.312451315,103.87962209999999,103.87962209999999,389349,GEYLANG ROAD,310A GEYLANG ROAD SINGAPORE 389349,33153.144810000005,32749.763489999998,389349
2,310B GEYLANG ROAD SINGAPORE 389349,310B,NIL,1.312451315,103.87962209999999,103.87962209999999,389349,GEYLANG ROAD,310B GEYLANG ROAD SINGAPORE 389349,33153.144810000005,32749.763489999998,389349
0,115 TUAS VIEW WALK 1 WESTLINK TECHPARK SINGAPORE 637734,115,WESTLINK TECHPARK,1.300911235,103.62779,103.62779,637734,TUAS VIEW WALK 1,WESTLINK TECHPARK,5126.470484,31474.60475,637734
0,142 TECK WHYE LANE HDB-CHOA CHU KANG SINGAPORE 680142,142,HDB-CHOA CHU KANG,1.380790496,103.75195440000002,103.75195440000002,680142,TECK WHYE LANE,HDB-CHOA CHU KANG,18945.19175,40306.468239999995,680142
0,309 HOUGANG AVENUE 5 HDB-HOUGANG SINGAPORE 530309,309,HDB-HOUGANG,1.3662055469999999,103.89515240000001,103.89515240000001,530309,HOUGANG AVENUE 5,HDB-HOUGANG,34881.36993,38693.6722,530309
0,154A BUKIT BATOK WEST AVENUE 8 SINGAPORE 651154,154A,NIL,1.3473718019999998,103.74369809999999,103.74369809999999,651154,BUKIT BATOK WEST AVENUE 8,154A BUKIT BATOK WEST AVENUE 8 SINGAPORE 651154,18026.23046,36611.227719999995,651154
1,154A BUKIT BATOK WEST AVENUE 8 OCBC BUKIT BATOK WEST AVE 8 SINGAPORE 651154,154A,OCBC BUKIT BATOK WEST AVE 8,1.347388255,103.7437047,103.7437047,651154,BUKIT BATOK WEST AVENUE 8,OCBC BUKIT BATOK WEST AVE 8,18026.96261,36613.04701,651154
0,161 ANG MO KIO AVENUE 4 SINGAPORE 560161,161,NIL,1.374164454,103.8395491,103.8395491,560161,ANG MO KIO AVENUE 4,161 ANG MO KIO AVENUE 4 SINGAPORE 560161,28693.38373,39573.64004,560161
1,161 ANG MO KIO AVENUE 4 CM CENTRAL PTE LTD SINGAPORE 560161,161,CM CENTRAL PTE LTD,1.374239517,103.8394892,103.8394892,560161,ANG MO KIO AVENUE 4,CM CENTRAL PTE LTD,28686.7136,39581.94009,560161
2,161 ANG MO KIO AVENUE 4 NEE SOON TOWN COUNCIL (KEBUN BARU SERVICE CENTRE) SINGAPORE 560161,161,NEE SOON TOWN COUNCIL (KEBUN BARU SERVICE CENTRE),1.374140215,103.8396733,103.8396733,560161,ANG MO KIO AVENUE 4,NEE SOON TOWN COUNCIL (KEBUN BARU SERVICE CENTRE),28707.202639999996,39570.959839999996,560161
0,555 UPPER JURONG ROAD DBS JURONG APARTMENTS SINGAPORE 638368,555,DBS JURONG APARTMENTS,1.3288204190000001,103.67716170000001,103.67716170000001,638368,UPPER JURONG ROAD,DBS JURONG APARTMENTS,10621.321670000001,34560.27665,638368
1,555 UPPER JURONG ROAD JURONG APARTMENTS SINGAPORE 638368,555,JURONG APARTMENTS,1.328855825,103.67716209999999,103.67716209999999,638368,UPPER JURONG ROAD,JURONG APARTMENTS,10621.363140000001,34564.19169,638368
0,6 TUAS SOUTH STREET 15 CDPL (TUAS) DORMITORY SINGAPORE 636906,6,CDPL (TUAS) DORMITORY,1.272360178,103.6370336,103.6370336,636906,TUAS SOUTH STREET 15,CDPL (TUAS) DORMITORY,6154.961436,28317.475769999997,636906
1,6 TUAS SOUTH STREET 15 DBS CDPL DORMITORY (TUAS) SINGAPORE 636906,6,DBS CDPL DORMITORY (TUAS),1.2726938190000001,103.6372626,103.6372626,636906,TUAS SOUTH STREET 15,DBS CDPL DORMITORY (TUAS),6180.454192,28354.36639,636906
0,30 PENJURU PLACE JURONG PENJURU DORMITORY 2 SINGAPORE 608557,30,JURONG PENJURU DORMITORY 2,1.316197703,103.73254179999999,103.73254179999999,608557,PENJURU PLACE,JURONG PENJURU DORMITORY 2,16784.511430000002,33164.19883,608557
0,273C PUNGGOL PLACE PUNGGOL REGALIA SINGAPORE 823273,273C,PUNGGOL REGALIA,1.4023030140000001,103.90126240000001,103.90126240000001,823273,PUNGGOL PLACE,PUNGGOL REGALIA,35561.22241,42685.16803,823273
0,258 PASIR RIS STREET 21 LOYANG POINT SINGAPORE 510258,258,LOYANG POINT,1.367000541,103.9646178,103.9646178,510258,PASIR RIS STREET 21,LOYANG POINT,42612.04067,38781.88942,510258
1,258 PASIR RIS STREET 21 DBS LOYANG POINT SINGAPORE 510258,258,DBS LOYANG POINT,1.367066342,103.9646356,103.9646356,510258,PASIR RIS STREET 21,DBS LOYANG POINT,42614.025010000005,38789.16551,510258
2,258 PASIR RIS STREET 21 UOB LOYANG POINT SINGAPORE 510258,258,UOB LOYANG POINT,1.367066342,103.9646356,103.9646356,510258,PASIR RIS STREET 21,UOB LOYANG POINT,42614.025010000005,38789.16551,510258
0,36 YIO CHU KANG ROAD SINGAPORE 545553,36,NIL,1.356760561,103.8760016,103.8760016,545553,YIO CHU KANG ROAD,36 YIO CHU KANG ROAD SINGAPORE 545553,32750.13463,37649.24722,545553
0,293 YISHUN STREET 22 HDB-YISHUN SINGAPORE 760293,293,HDB-YISHUN,1.436114254,103.8376052,103.8376052,760293,YISHUN STREET 22,HDB-YISHUN,28477.03965,46423.73526,760293
1,293 YISHUN STREET 22 UOB YISHUN STREET 22 SINGAPORE 760293,293,UOB YISHUN STREET 22,1.435915985,103.8378584,103.8378584,760293,YISHUN STREET 22,UOB YISHUN STREET 22,28505.2153,46401.81171,760293
0,350 ORCHARD ROAD SHAW HOUSE SINGAPORE 238868,350,SHAW HOUSE,1.305730607,103.8315319,103.8315319,238868,ORCHARD ROAD,SHAW HOUSE,27801.16142,32006.574610000003,238868
1,350 ORCHARD ROAD SHAW THEATRES LIDO SINGAPORE 238868,350,SHAW THEATRES LIDO,1.3058680059999999,103.8315183,103.8315183,238868,ORCHARD ROAD,SHAW THEATRES LIDO,27799.64212,32021.76751,238868
0,430 UPPER CHANGI ROAD EAST VILLAGE SINGAPORE 487048,430,EAST VILLAGE,1.331775815,103.9462012,103.9462012,487048,UPPER CHANGI ROAD,EAST VILLAGE,40562.676980000004,34886.80742,487048
0,215 ANG MO KIO AVENUE 1 ANG MO KIO 22 SINGAPORE 560215,215,ANG MO KIO 22,1.3665583019999998,103.84162409999999,103.84162409999999,560215,ANG MO KIO AVENUE 1,ANG MO KIO 22,28924.303289999996,38732.59114,560215
1,215 ANG MO KIO AVENUE 1 KITS4KIDS SPECIAL SCHOOL SINGAPORE 560215,215,KITS4KIDS SPECIAL SCHOOL,1.366487721,103.8418534,103.8418534,560215,ANG MO KIO AVENUE 1,KITS4KIDS SPECIAL SCHOOL,28949.822739999996,38724.78678,560215
2,215 ANG MO KIO AVENUE 1 OCBC ANG MO KIO AVE 1 - FAIRPRICE SINGAPORE 560215,215,OCBC ANG MO KIO AVE 1 - FAIRPRICE,1.36650736,103.84179240000002,103.84179240000002,560215,ANG MO KIO AVENUE 1,OCBC ANG MO KIO AVE 1 - FAIRPRICE,28943.0303,38726.95839,560215
3,215 ANG MO KIO AVENUE 1 DBS NTUC ANG MO KIO AVENUE 1 SINGAPORE 560215,215,DBS NTUC ANG MO KIO AVENUE 1,1.3665057569999999,103.84181120000001,103.84181120000001,560215,ANG MO KIO AVENUE 1,DBS NTUC ANG MO KIO AVENUE 1,28945.12551,38726.78111,560215
0,163 TANGLIN ROAD DBS TANGLIN MALL SINGAPORE 247933,163,DBS TANGLIN MALL,1.304853421,103.8238835,103.8238835,247933,TANGLIN ROAD,DBS TANGLIN MALL,26949.9613,31909.5818,247933
1,163 TANGLIN ROAD OCBC TANGLIN MALL SINGAPORE 247933,163,OCBC TANGLIN MALL,1.304853421,103.8238835,103.8238835,247933,TANGLIN ROAD,OCBC TANGLIN MALL,26949.9613,31909.5818,247933
2,163 TANGLIN ROAD TANGLIN MALL SINGAPORE 247933,163,TANGLIN MALL,1.304853421,103.8238835,103.8238835,247933,TANGLIN ROAD,TANGLIN MALL,26949.9613,31909.581830000003,247933
3,163 TANGLIN ROAD UOB TANGLIN MALL SINGAPORE 247933,163,UOB TANGLIN MALL,1.304853421,103.8238835,103.8238835,247933,TANGLIN ROAD,UOB TANGLIN MALL,26949.9613,31909.5818,247933
0,383 BUKIT TIMAH ROAD ALOCASSIA APARTMENTS SINGAPORE 259727,383,ALOCASSIA APARTMENTS,1.319464412,103.8272976,103.8272976,259727,BUKIT TIMAH ROAD,ALOCASSIA APARTMENTS,27329.92414,33525.18888,259727
0,144 UPPER BUKIT TIMAH ROAD BEAUTY WORLD CENTRE SINGAPORE 588177,144,BEAUTY WORLD CENTRE,1.342412642,103.7765394,103.7765394,588177,UPPER BUKIT TIMAH ROAD,BEAUTY WORLD CENTRE,21681.09122,36062.75911,588177
1,144 UPPER BUKIT TIMAH ROAD LEARNING HUB@GRACELAND PTE. LTD. SINGAPORE 588177,144,LEARNING HUB@GRACELAND PTE. LTD.,1.342392845,103.7762505,103.7762505,588177,UPPER BUKIT TIMAH ROAD,LEARNING HUB@GRACELAND PTE. LTD.,21648.94441,36060.5708,588177
2,144 UPPER BUKIT TIMAH ROAD KINDER GROWTH PTE LTD SINGAPORE 588177,144,KINDER GROWTH PTE LTD,1.3423950880000002,103.77646829999999,103.77646829999999,588177,UPPER BUKIT TIMAH ROAD,KINDER GROWTH PTE LTD,21673.18023,36060.8183,588177
3,144 UPPER BUKIT TIMAH ROAD DBS BEAUTY WORLD CENTRE SINGAPORE 588177,144,DBS BEAUTY WORLD CENTRE,1.342412642,103.7765394,103.7765394,588177,UPPER BUKIT TIMAH ROAD,DBS BEAUTY WORLD CENTRE,21681.09119,36062.75911,588177
0,6 HOUGANG AVENUE 3 HDB-HOUGANG SINGAPORE 530006,6,HDB-HOUGANG,1.362714463,103.89398050000001,103.89398050000001,530006,HOUGANG AVENUE 3,HDB-HOUGANG,34750.95871,38307.64239,530006
0,28 TOH GUAN ROAD EAST WESTLITE TOH GUAN DORMITORY SINGAPORE 608596,28,WESTLITE TOH GUAN DORMITORY,1.336417982,103.7518074,103.7518074,608596,TOH GUAN ROAD EAST,WESTLITE TOH GUAN DORMITORY,18928.66364,35399.977439999995,608596
0,301 YISHUN AVENUE 2 YISHUN MRT STATION SINGAPORE 769093,301,YISHUN MRT STATION (NS13),1.429443085,103.83500500000001,103.83500500000001,769093,YISHUN AVENUE 2,YISHUN MRT STATION (NS13),28187.678819999997,45686.07054,769093
1,301 YISHUN AVENUE 2 OCBC YISHUN MRT STATION SINGAPORE 769093,301,OCBC YISHUN MRT STATION,1.429588766,103.83505040000001,103.83505040000001,769093,YISHUN AVENUE 2,OCBC YISHUN MRT STATION,28192.72391,45702.179189999995,769093
2,301 YISHUN AVENUE 2 DBS YISHUN MRT STATION SINGAPORE 769093,301,DBS YISHUN MRT STATION,1.429525229,103.83499509999999,103.83499509999999,769093,YISHUN AVENUE 2,DBS YISHUN MRT STATION,28186.576489999996,45695.1536,769093
3,301 YISHUN AVENUE 2 DBS NTUC YISHUN MRT STATION SINGAPORE 769093,301,DBS NTUC YISHUN MRT STATION,1.429525229,103.83499509999999,103.83499509999999,769093,YISHUN AVENUE 2,DBS NTUC YISHUN MRT STATION,28186.576489999996,45695.1536,769093
4,301 YISHUN AVENUE 2 CITIBANK YISHUN SMRT STATION SINGAPORE 769093,301,CITIBANK YISHUN SMRT STATION,1.429517287,103.8350583,103.8350583,769093,YISHUN AVENUE 2,CITIBANK YISHUN SMRT STATION,28193.602110000003,45694.2754,769093
5,301 YISHUN AVENUE 2 UOB YISHUN MRT STATION SINGAPORE 769093,301,UOB YISHUN MRT STATION,1.429445808,103.8350583,103.8350583,769093,YISHUN AVENUE 2,UOB YISHUN MRT STATION,28193.602110000003,45686.37161,769093
0,12 KALLANG AVENUE APERIA SINGAPORE 339511,12,APERIA,1.30974242,103.8641016,103.8641016,339511,KALLANG AVENUE,APERIA,31425.86637,32450.20122,339511
1,12 KALLANG AVENUE JOSIAH BABIES (APERIA) SINGAPORE 339511,12,JOSIAH BABIES (APERIA),1.30974242,103.8641017,103.8641017,339511,KALLANG AVENUE,JOSIAH BABIES (APERIA),31425.8667,32450.201189999996,339511
2,12 KALLANG AVENUE IMONTESSORI PTE. LTD. SINGAPORE 339511,12,IMONTESSORI PTE. LTD.,1.30974242,103.8641017,103.8641017,339511,KALLANG AVENUE,IMONTESSORI PTE. LTD.,31425.8667,32450.201189999996,339511
3,12 KALLANG AVENUE DBS APERIA BRANCH SINGAPORE 339511,12,DBS APERIA BRANCH,1.309711207,103.86432640000001,103.86432640000001,339511,KALLANG AVENUE,DBS APERIA BRANCH,31450.88331,32446.7501,339511
0,15 SIGLAP ROAD MANDARIN GARDENS SINGAPORE 448912,15,MANDARIN GARDENS,1.3070607570000001,103.9237698,103.9237698,448912,SIGLAP ROAD,MANDARIN GARDENS,38066.38147,32153.83683,448912
0,5 JALAN PAPAN ASPRI-WESTLITE PAPAN SINGAPORE 619396,5,ASPRI-WESTLITE PAPAN,1.322138268,103.7274213,103.7274213,619396,JALAN PAPAN,ASPRI-WESTLITE PAPAN,16214.679559999999,33821.10071,619396
1,5 JALAN PAPAN DBS WESTLITE DORMITORY (JALAN PAPAN) SINGAPORE 619396,5,DBS WESTLITE DORMITORY (JALAN PAPAN),1.322072015,103.7275458,103.7275458,619396,JALAN PAPAN,DBS WESTLITE DORMITORY (JALAN PAPAN),16228.5317,33813.77422,619396
0,1 STADIUM PLACE KALLANG WAVE MALL SINGAPORE 397628,1,KALLANG WAVE MALL,1.303843272,103.8727507,103.8727507,397628,STADIUM PLACE,KALLANG WAVE MALL,32388.43522,31797.917060000003,397628
1,1 STADIUM PLACE OCBC KALLANG WAVE BRANCH SINGAPORE 397628,1,OCBC KALLANG WAVE BRANCH,1.3030751520000001,103.8731497,103.8731497,397628,STADIUM PLACE,OCBC KALLANG WAVE BRANCH,32432.842289999997,31712.983010000004,397628
2,1 STADIUM PLACE OCBC KALLANG WAVE - FAIRPRICE SINGAPORE 397628,1,OCBC KALLANG WAVE - FAIRPRICE,1.303071576,103.87304470000001,103.87304470000001,397628,STADIUM PLACE,OCBC KALLANG WAVE - FAIRPRICE,32421.15597,31712.58744,397628
0,511 CANBERRA ROAD SEMBAWANG MART SINGAPORE 750511,511,SEMBAWANG MART,1.453775808,103.8195905,103.8195905,750511,CANBERRA ROAD,SEMBAWANG MART,26472.2867,48376.665460000004,750511
1,511 CANBERRA ROAD BERRY TREE PRESCHOOL@SEMBAWANG PRIVATE LIMITED SINGAPORE 750511,511,BERRY TREE PRESCHOOL@SEMBAWANG PRIVATE LIMITED,1.453845188,103.81954329999999,103.81954329999999,750511,CANBERRA ROAD,BERRY TREE PRESCHOOL@SEMBAWANG PRIVATE LIMITED,26467.03871,48384.33719,750511
2,511 CANBERRA ROAD MLC (WELLINGTON) PTE. LTD. SINGAPORE 750511,511,MLC (WELLINGTON) PTE. LTD.,1.453845188,103.81954329999999,103.81954329999999,750511,CANBERRA ROAD,MLC (WELLINGTON) PTE. LTD.,26467.03871,48384.33719,750511
3,511 CANBERRA ROAD OCBC CANBERRA ROAD - FAIRPRICE SINGAPORE 750511,511,OCBC CANBERRA ROAD - FAIRPRICE,1.453610144,103.8196256,103.8196256,750511,CANBERRA ROAD,OCBC CANBERRA ROAD - FAIRPRICE,26476.1906,48358.34719,750511
4,511 CANBERRA ROAD DBS NTUC CANBERRA ROAD SINGAPORE 750511,511,DBS NTUC CANBERRA ROAD,1.45384519,103.81954329999999,103.81954329999999,750511,CANBERRA ROAD,DBS NTUC CANBERRA ROAD,26467.03829,48384.3374,750511
5,511 CANBERRA ROAD ZULFA KINDERGARTEN @ SEMBAWANG MART PTE LTD SINGAPORE 750511,511,ZULFA KINDERGARTEN @ SEMBAWANG MART PTE LTD,1.453845188,103.81954329999999,103.81954329999999,750511,CANBERRA ROAD,ZULFA KINDERGARTEN @ SEMBAWANG MART PTE LTD,26467.03871,48384.33719,750511
0,51 SOON LEE ROAD DBS SCAL RECREATION CENTRE SINGAPORE 628088,51,DBS SCAL RECREATION CENTRE,1.33212291,103.6990703,103.6990703,628088,SOON LEE ROAD,DBS SCAL RECREATION CENTRE,13059.5439,34925.30687,628088
1,51 SOON LEE ROAD SCAL RECREATION CENTRE SINGAPORE 628088,51,SCAL RECREATION CENTRE,1.332013295,103.6990734,103.6990734,628088,SOON LEE ROAD,SCAL RECREATION CENTRE,13059.89762,34913.18615,628088
0,30 WOODLANDS AVENUE 1 THE WOODGROVE SINGAPORE 739065,30,THE WOODGROVE,1.429402782,103.78132540000001,103.78132540000001,739065,WOODLANDS AVENUE 1,THE WOODGROVE,22213.93334,45681.679560000004,739065
1,30 WOODLANDS AVENUE 1 DBS NTUC THE WOODGROVE SINGAPORE 739065,30,DBS NTUC THE WOODGROVE,1.429384741,103.7812921,103.7812921,739065,WOODLANDS AVENUE 1,DBS NTUC THE WOODGROVE,22210.2299,45679.684689999995,739065
2,30 WOODLANDS AVENUE 1 OCBC WOODLANDS AVENUE 1 - FAIRPRICE SINGAPORE 739065,30,OCBC WOODLANDS AVENUE 1 - FAIRPRICE,1.429336335,103.7813373,103.7813373,739065,WOODLANDS AVENUE 1,OCBC WOODLANDS AVENUE 1 - FAIRPRICE,22215.25663,45674.3321,739065
0,460 ALEXANDRA ROAD CASINO REGULATORY AUTHORITY (CRA) SINGAPORE 119963,460,CASINO REGULATORY AUTHORITY (CRA),1.2736786979999999,103.80136359999999,103.80136359999999,119963,ALEXANDRA ROAD,CASINO REGULATORY AUTHORITY (CRA),24443.65599,28462.461919999998,119963
1,460 ALEXANDRA ROAD EDUCAZION PTE. LTD. SINGAPORE 119963,460,EDUCAZION PTE. LTD.,1.27367658,103.80112690000001,103.80112690000001,119963,ALEXANDRA ROAD,EDUCAZION PTE. LTD.,24417.322999999997,28462.2281,119963
2,460 ALEXANDRA ROAD GEOWORKS (SINGAPORE LAND AUTHORITY) SINGAPORE 119963,460,GEOWORKS (SINGAPORE LAND AUTHORITY),1.273625583,103.8012223,103.8012223,119963,ALEXANDRA ROAD,GEOWORKS (SINGAPORE LAND AUTHORITY),24427.938680000003,28456.588939999998,119963
3,460 ALEXANDRA ROAD PSA BUILDING SINGAPORE 119963,460,PSA BUILDING,1.2736989090000002,103.8012778,103.8012778,119963,ALEXANDRA ROAD,PSA BUILDING,24434.10929,28464.69685,119963
4,460 ALEXANDRA ROAD SHIPPING DIVISION SINGAPORE 119963,460,SHIPPING DIVISION,1.273716122,103.80120090000001,103.80120090000001,119963,ALEXANDRA ROAD,SHIPPING DIVISION,24425.55559,28466.60031,119963
5,460 ALEXANDRA ROAD MINISTRY OF TRANSPORT (MOT) SINGAPORE 119963,460,MINISTRY OF TRANSPORT (MOT),1.273666538,103.8012059,103.8012059,119963,ALEXANDRA ROAD,MINISTRY OF TRANSPORT (MOT),24426.11234,28461.11757,119963
6,460 ALEXANDRA ROAD DBS NTUC ALEXANDRA RETAIL CENTRE SINGAPORE 119963,460,DBS NTUC ALEXANDRA RETAIL CENTRE,1.2738426390000002,103.801375,103.801375,119963,ALEXANDRA ROAD,DBS NTUC ALEXANDRA RETAIL CENTRE,24444.933999999997,28480.58966,119963
7,460 ALEXANDRA ROAD HSBC ALEXANDRA BRANCH SINGAPORE 119963,460,HSBC ALEXANDRA BRANCH,1.2741761999999999,103.80152009999999,103.80152009999999,119963,ALEXANDRA ROAD,HSBC ALEXANDRA BRANCH,24461.08245,28517.4729,119963
8,460 ALEXANDRA ROAD UOB ALEXANDRA RETAIL CENTRE SINGAPORE 119963,460,UOB ALEXANDRA RETAIL CENTRE,1.273621827,103.80127890000001,103.80127890000001,119963,ALEXANDRA ROAD,UOB ALEXANDRA RETAIL CENTRE,24434.23351,28456.1736,119963
9,460 ALEXANDRA ROAD ALEXANDRA RETAIL CENTRE (ARC) SINGAPORE 119963,460,ALEXANDRA RETAIL CENTRE (ARC),1.274148936,103.80139940000001,103.80139940000001,119963,ALEXANDRA ROAD,ALEXANDRA RETAIL CENTRE (ARC),24447.64755,28514.45842,119963
0,463 SEMBAWANG DRIVE SEMBAWANG RIVERLODGE SINGAPORE 750463,463,SEMBAWANG RIVERLODGE,1.455512086,103.81454029999999,103.81454029999999,750463,SEMBAWANG DRIVE,SEMBAWANG RIVERLODGE,25910.27995,48568.658489999994,750463
1,463 SEMBAWANG DRIVE DBS SEMBAWANG DRIVE 463 SINGAPORE 750463,463,DBS SEMBAWANG DRIVE 463,1.455553884,103.8146493,103.8146493,750463,SEMBAWANG DRIVE,DBS SEMBAWANG DRIVE 463,25922.41417,48573.28017,750463
0,8 SELETAR NORTH LINK DBS PPT LODGE 1A SINGAPORE 797455,8,DBS PPT LODGE 1A,1.418331386,103.8964479,103.8964479,797455,SELETAR NORTH LINK,DBS PPT LODGE 1A,35025.38481,44457.4906,797455
1,8 SELETAR NORTH LINK PPT LODGE 1A SINGAPORE 797455,8,PPT LODGE 1A,1.418626419,103.8967762,103.8967762,797455,SELETAR NORTH LINK,PPT LODGE 1A,35061.92375,44490.11479,797455
0,11 TECH PARK CRESCENT TUAS TECHPARK SINGAPORE 638121,11,TUAS TECHPARK,1.311002407,103.6315723,103.6315723,638121,TECH PARK CRESCENT,TUAS TECHPARK,5547.5000740000005,32590.407580000003,638121
0,77 CIRCUIT ROAD SINGAPORE 370077,77,NIL,1.328556562,103.88534990000001,103.88534990000001,370077,CIRCUIT ROAD,77 CIRCUIT ROAD SINGAPORE 370077,33790.55429,34530.6123,370077
1,77 CIRCUIT ROAD DBS NTUC CIRCUIT ROAD SINGAPORE 370077,77,DBS NTUC CIRCUIT ROAD,1.328633731,103.8853726,103.8853726,370077,CIRCUIT ROAD,DBS NTUC CIRCUIT ROAD,33793.0816,34539.1453,370077
2,77 CIRCUIT ROAD OCBC CIRCUIT ROAD - FAIRPRICE SINGAPORE 370077,77,OCBC CIRCUIT ROAD - FAIRPRICE,1.328556562,103.88534990000001,103.88534990000001,370077,CIRCUIT ROAD,OCBC CIRCUIT ROAD - FAIRPRICE,33790.55429,34530.6123,370077
0,6 SCOTTS ROAD SCOTTS SQUARE SINGAPORE 228209,6,SCOTTS SQUARE,1.305767209,103.83307690000001,103.83307690000001,228209,SCOTTS ROAD,SCOTTS SQUARE,27973.10106,32010.621810000004,228209
1,6 SCOTTS ROAD THE SCOTTS SINGAPORE 228209,6,THE SCOTTS,1.305870853,103.8331204,103.8331204,228209,SCOTTS ROAD,THE SCOTTS,27977.949689999998,32022.0822,228209
2,6 SCOTTS ROAD DBS NTUC SCOTTS SQUARE SINGAPORE 228209,6,DBS NTUC SCOTTS SQUARE,1.305855826,103.8329844,103.8329844,228209,SCOTTS ROAD,DBS NTUC SCOTTS SQUARE,27962.8041,32020.42061,228209
3,6 SCOTTS ROAD OCBC SCOTTS SQUARE - FAIRPRICE SINGAPORE 228209,6,OCBC SCOTTS SQUARE - FAIRPRICE,1.305806097,103.83305959999998,103.83305959999998,228209,SCOTTS ROAD,OCBC SCOTTS SQUARE - FAIRPRICE,27971.1791,32014.9218,228209
4,6 SCOTTS ROAD OCBC SCOTTS SQUARE SINGAPORE 228209,6,OCBC SCOTTS SQUARE,1.305806097,103.83305959999998,103.83305959999998,228209,SCOTTS ROAD,OCBC SCOTTS SQUARE,27971.1791,32014.9218,228209
0,21 CHOA CHU KANG AVENUE 4 DBS LOT 1 SINGAPORE 689812,21,DBS LOT 1,1.385068365,103.74495040000001,103.74495040000001,689812,CHOA CHU KANG AVENUE 4,DBS LOT 1,18165.74801,40779.52159,689812
1,"21 CHOA CHU KANG AVENUE 4 LOT ONE, SHOPPERS' MALL SINGAPORE 689812",21,"LOT ONE, SHOPPERS' MALL",1.385111549,103.7450362,103.7450362,689812,CHOA CHU KANG AVENUE 4,"LOT ONE, SHOPPERS' MALL",18175.29537,40784.29637,689812
2,21 CHOA CHU KANG AVENUE 4 DBS NTUC LOT 1 SHOPPERS' MALL SINGAPORE 689812,21,DBS NTUC LOT 1 SHOPPERS' MALL,1.385068365,103.74495040000001,103.74495040000001,689812,CHOA CHU KANG AVENUE 4,DBS NTUC LOT 1 SHOPPERS' MALL,18165.74801,40779.52159,689812
3,21 CHOA CHU KANG AVENUE 4 OCBC LOT 1 SHOPPERS MALL SINGAPORE 689812,21,OCBC LOT 1 SHOPPERS MALL,1.38511155,103.7450362,103.7450362,689812,CHOA CHU KANG AVENUE 4,OCBC LOT 1 SHOPPERS MALL,18175.2954,40784.2964,689812
4,21 CHOA CHU KANG AVENUE 4 CHOA CHU KANG PUBLIC LIBRARY SINGAPORE 689812,21,CHOA CHU KANG PUBLIC LIBRARY,1.38493874,103.7450225,103.7450225,689812,CHOA CHU KANG AVENUE 4,CHOA CHU KANG PUBLIC LIBRARY,18173.77105,40765.18807,689812
5,21 CHOA CHU KANG AVENUE 4 SHAW THEATRES LOT ONE SINGAPORE 689812,21,SHAW THEATRES LOT ONE,1.385069923,103.7452389,103.7452389,689812,CHOA CHU KANG AVENUE 4,SHAW THEATRES LOT ONE,18197.85323,40779.69273,689812
0,387 UPPER ALJUNIED ROAD SINGAPORE 367872,387,NIL,1.333123242,103.87884190000001,103.87884190000001,367872,UPPER ALJUNIED ROAD,387 UPPER ALJUNIED ROAD SINGAPORE 367872,33066.270280000004,35035.55827,367872
0,31 OCEAN WAY QUAYSIDE ISLE SINGAPORE 098375,31,QUAYSIDE ISLE,1.247758615,103.8419211,103.8419211,098375,OCEAN WAY,QUAYSIDE ISLE,28957.40139,25596.33306,098375
1,31 OCEAN WAY DBS QUAYSIDE ISLE SINGAPORE 098375,31,DBS QUAYSIDE ISLE,1.2470699790000002,103.84218299999999,103.84218299999999,098375,OCEAN WAY,DBS QUAYSIDE ISLE,28986.54731,25520.18741,098375
2,31 OCEAN WAY QUAYSIDE ISLE PREPARATORY SCHOOL SINGAPORE 098375,31,QUAYSIDE ISLE PREPARATORY SCHOOL,1.247758619,103.8419211,103.8419211,098375,OCEAN WAY,QUAYSIDE ISLE PREPARATORY SCHOOL,28957.4023,25596.33349,098375
0,739A BEDOK RESERVOIR ROAD RESERVOIR VILLAGE SINGAPORE 471739,739A,RESERVOIR VILLAGE,1.3382420320000001,103.92330390000001,103.92330390000001,471739,BEDOK RESERVOIR ROAD,RESERVOIR VILLAGE,38014.41388,35601.70465,471739
0,1 LOWER KENT RIDGE ROAD DBS NTUC NUH SINGAPORE 119082,1,DBS NTUC NUH,1.293512877,103.78468559999999,103.78468559999999,119082,LOWER KENT RIDGE ROAD,DBS NTUC NUH,22587.56911,30655.652810000003,119082
1,1 LOWER KENT RIDGE ROAD LEARNING VISION @ WORK PTE. LTD. SINGAPORE 119082,1,LEARNING VISION @ WORK PTE. LTD.,1.292774327,103.784084,103.784084,119082,LOWER KENT RIDGE ROAD,LEARNING VISION @ WORK PTE. LTD.,22520.619,30573.98901,119082
2,1 LOWER KENT RIDGE ROAD OCBC NUH - FAIRPRICE SINGAPORE 119082,1,OCBC NUH - FAIRPRICE,1.293512877,103.78468559999999,103.78468559999999,119082,LOWER KENT RIDGE ROAD,OCBC NUH - FAIRPRICE,22587.56911,30655.652810000003,119082
3,1 LOWER KENT RIDGE ROAD NUH MEDICAL CENTRE SINGAPORE 119082,1,NUH MEDICAL CENTRE,1.293502749,103.78421740000002,103.78421740000002,119082,LOWER KENT RIDGE ROAD,NUH MEDICAL CENTRE,22535.46072,30654.5339,119082
4,1 LOWER KENT RIDGE ROAD ONE@KENTRIDGE SINGAPORE 119082,1,ONE@KENTRIDGE,1.29277432,103.784084,103.784084,119082,LOWER KENT RIDGE ROAD,ONE@KENTRIDGE,22520.61803,30573.98822,119082
0,7 KAKI BUKIT AVENUE 3 KAKI BUKIT RECREATION CENTRE SINGAPORE 415814,7,KAKI BUKIT RECREATION CENTRE,1.337297144,103.9066317,103.9066317,415814,KAKI BUKIT AVENUE 3,KAKI BUKIT RECREATION CENTRE,36158.97241,35497.16188,415814
1,7 KAKI BUKIT AVENUE 3 DBS KAKI BUKIT RECREATION CENTRE SINGAPORE 415814,7,DBS KAKI BUKIT RECREATION CENTRE,1.337217119,103.90665729999999,103.90665729999999,415814,KAKI BUKIT AVENUE 3,DBS KAKI BUKIT RECREATION CENTRE,36161.826069999996,35488.31322,415814
0,221 BOON LAY PLACE OCBC BOON LAY SHOPPING CENTRE FAIRPRICE SINGAPORE 640221,221,OCBC BOON LAY SHOPPING CENTRE FAIRPRICE,1.346373764,103.7124728,103.7124728,640221,BOON LAY PLACE,OCBC BOON LAY SHOPPING CENTRE FAIRPRICE,14551.1907,36501.01969,640221
1,221 BOON LAY PLACE DBS NTUC BOON LAY PLACE SINGAPORE 640221,221,DBS NTUC BOON LAY PLACE,1.346373764,103.7124728,103.7124728,640221,BOON LAY PLACE,DBS NTUC BOON LAY PLACE,14551.1907,36501.01969,640221
2,221 BOON LAY PLACE OCBC BOON LAY SHOPPING CENTRE SINGAPORE 640221,221,OCBC BOON LAY SHOPPING CENTRE,1.346373764,103.7124728,103.7124728,640221,BOON LAY PLACE,OCBC BOON LAY SHOPPING CENTRE,14551.1907,36501.01969,640221
3,221 BOON LAY PLACE BOON LAY SHOPPING CENTRE SINGAPORE 640221,221,BOON LAY SHOPPING CENTRE,1.346373764,103.7124728,103.7124728,640221,BOON LAY PLACE,BOON LAY SHOPPING CENTRE,14551.1907,36501.019660000005,640221
4,221 BOON LAY PLACE RAINBOW CHILDCARE PTE LTD SINGAPORE 640221,221,RAINBOW CHILDCARE PTE LTD,1.346348193,103.7124293,103.7124293,640221,BOON LAY PLACE,RAINBOW CHILDCARE PTE LTD,14546.34919,36498.19239,640221
5,221 BOON LAY PLACE UOB BOON LAY PLACE SINGAPORE 640221,221,UOB BOON LAY PLACE,1.346373764,103.7124728,103.7124728,640221,BOON LAY PLACE,UOB BOON LAY PLACE,14551.1907,36501.01969,640221
0,18B CIRCUIT ROAD MACPHERSON RESIDENCY SINGAPORE 372018,18B,MACPHERSON RESIDENCY,1.329181051,103.88824840000001,103.88824840000001,372018,CIRCUIT ROAD,MACPHERSON RESIDENCY,34113.13091,34599.67213,372018
0,5 TECH PARK CRESCENT TUAS TECHPARK SINGAPORE 638127,5,TUAS TECHPARK,1.311467888,103.63034,103.63034,638127,TECH PARK CRESCENT,TUAS TECHPARK,5410.361984,32641.889539999996,638127
0,1 HOUGANG STREET 91 UOB HOUGANG 1 SINGAPORE 538692,1,UOB HOUGANG 1,1.375609857,103.8794075,103.8794075,538692,HOUGANG STREET 91,UOB HOUGANG 1,33129.12208,39733.51398,538692
1,1 HOUGANG STREET 91 DBS NTUC HOUGANG POINT SINGAPORE 538692,1,DBS NTUC HOUGANG POINT,1.3756433540000002,103.8795121,103.8795121,538692,HOUGANG STREET 91,DBS NTUC HOUGANG POINT,33140.76379,39737.21815,538692
2,1 HOUGANG STREET 91 OCBC HOUGANG ST 91 - FAIRPRICE SINGAPORE 538692,1,OCBC HOUGANG ST 91 - FAIRPRICE,1.3756050709999998,103.87945500000001,103.87945500000001,538692,HOUGANG STREET 91,OCBC HOUGANG ST 91 - FAIRPRICE,33134.41378,39732.98481,538692
3,1 HOUGANG STREET 91 DBS HOUGANG 1 SINGAPORE 538692,1,DBS HOUGANG 1,1.3756146409999999,103.87948349999999,103.87948349999999,538692,HOUGANG STREET 91,DBS HOUGANG 1,33137.58877,39734.04316,538692
4,1 HOUGANG STREET 91 HOUGANG 1 SINGAPORE 538692,1,HOUGANG 1,1.375667283,103.8794503,103.8794503,538692,HOUGANG STREET 91,HOUGANG 1,33133.88457,39739.864,538692
5,1 HOUGANG STREET 91 VILLAGE RESIDENCE HOUGANG SINGAPORE 538692,1,VILLAGE RESIDENCE HOUGANG,1.3758499819999999,103.8793,103.8793,538692,HOUGANG STREET 91,VILLAGE RESIDENCE HOUGANG,33117.16511,39760.06551,538692
0,10 NEO TIEW LANE 2 GALLOP KRANJI FARM RESORT SINGAPORE 718813,10,GALLOP KRANJI FARM RESORT,1.419693574,103.7185755,103.7185755,718813,NEO TIEW LANE 2,GALLOP KRANJI FARM RESORT,15230.74998,44608.33554,718813
0,3 TUAS SOUTH STREET 12 TUAS SOUTH DORMITORY SINGAPORE 636947,3,TUAS SOUTH DORMITORY,1.271645216,103.6336113,103.6336113,636947,TUAS SOUTH STREET 12,TUAS SOUTH DORMITORY,5774.077756000001,28238.44773,636947
0,5 CHANGI BUSINESS PARK CENTRAL 1 DBS CHANGI CITY POINT SINGAPORE 486038,5,DBS CHANGI CITY POINT,1.334083638,103.962946,103.962946,486038,CHANGI BUSINESS PARK CENTRAL 1,DBS CHANGI CITY POINT,42426.19041,35142.086989999996,486038
1,5 CHANGI BUSINESS PARK CENTRAL 1 CHANGI CITY SINGAPORE 486038,5,CHANGI CITY,1.33411313,103.9627928,103.9627928,486038,CHANGI BUSINESS PARK CENTRAL 1,CHANGI CITY,42409.1407,35145.347180000004,486038
2,5 CHANGI BUSINESS PARK CENTRAL 1 CHANGI CITY POINT SINGAPORE 486038,5,CHANGI CITY POINT,1.334036379,103.9629176,103.9629176,486038,CHANGI BUSINESS PARK CENTRAL 1,CHANGI CITY POINT,42423.02695,35136.861130000005,486038
3,5 CHANGI BUSINESS PARK CENTRAL 1 DBS NTUC CHANGI CITY POINT SINGAPORE 486038,5,DBS NTUC CHANGI CITY POINT,1.334149835,103.9629818,103.9629818,486038,CHANGI BUSINESS PARK CENTRAL 1,DBS NTUC CHANGI CITY POINT,42430.16756,35149.406910000005,486038
4,5 CHANGI BUSINESS PARK CENTRAL 1 OCBC CHANGI CITY POINT - FAIRPRICE SINGAPORE 486038,5,OCBC CHANGI CITY POINT - FAIRPRICE,1.33432516,103.9623893,103.9623893,486038,CHANGI BUSINESS PARK CENTRAL 1,OCBC CHANGI CITY POINT - FAIRPRICE,42364.22909,35168.790010000004,486038
0,2 BUKIT PANJANG RING ROAD DBS NTUC BUKIT PANJANG RING ROAD SINGAPORE 679947,2,DBS NTUC BUKIT PANJANG RING ROAD,1.377600591,103.7724897,103.7724897,679947,BUKIT PANJANG RING ROAD,DBS NTUC BUKIT PANJANG RING ROAD,21230.49831,39953.67619,679947
1,2 BUKIT PANJANG RING ROAD BUKIT PANJANG HAWKER CENTRE SINGAPORE 679947,2,BUKIT PANJANG HAWKER CENTRE,1.377526599,103.7725312,103.7725312,679947,BUKIT PANJANG RING ROAD,BUKIT PANJANG HAWKER CENTRE,21235.12598,39945.49439,679947
0,159A HOUGANG STREET 11 MULTI STOREY CAR PARK SINGAPORE 531159,159A,MULTI STOREY CAR PARK,1.3518933659999999,103.87944449999999,103.87944449999999,531159,HOUGANG STREET 11,MULTI STOREY CAR PARK,33133.295739999994,37111.06443,531159
1,159A HOUGANG STREET 11 FOOD CENTRE SINGAPORE 531159,159A,FOOD CENTRE,1.352090604,103.8793146,103.8793146,531159,HOUGANG STREET 11,FOOD CENTRE,33118.837080000005,37132.873719999996,531159
0,257 KRANJI ROAD KRANJI INDUSTRIAL ESTATE SINGAPORE 739503,257,KRANJI INDUSTRIAL ESTATE,1.43594536,103.7540084,103.7540084,739503,KRANJI ROAD,KRANJI INDUSTRIAL ESTATE,19173.98568,46405.212530000004,739503
0,108 DEPOT ROAD DBS NTUC DEPOT ROAD SINGAPORE 100108,108,DBS NTUC DEPOT ROAD,1.280966807,103.8102982,103.8102982,100108,DEPOT ROAD,DBS NTUC DEPOT ROAD,25438.01801,29268.3328,100108
1,108 DEPOT ROAD OCBC DEPOT HEIGHTS SHOPPING CENTRE SINGAPORE 100108,108,OCBC DEPOT HEIGHTS SHOPPING CENTRE,1.280966807,103.8102982,103.8102982,100108,DEPOT ROAD,OCBC DEPOT HEIGHTS SHOPPING CENTRE,25438.01801,29268.3328,100108
2,108 DEPOT ROAD DEPOT HEIGHTS SHOPPING CENTRE SINGAPORE 100108,108,DEPOT HEIGHTS SHOPPING CENTRE,1.280966807,103.8102982,103.8102982,100108,DEPOT ROAD,DEPOT HEIGHTS SHOPPING CENTRE,25438.01801,29268.33283,100108
3,108 DEPOT ROAD EDUCA-ZION GROUP PTE. LTD. SINGAPORE 100108,108,EDUCA-ZION GROUP PTE. LTD.,1.2811222690000001,103.81003129999999,103.81003129999999,100108,DEPOT ROAD,EDUCA-ZION GROUP PTE. LTD.,25408.3167,29285.523189999996,100108
0,85 DAWSON ROAD SKYVILLE @ DAWSON SINGAPORE 141085,85,SKYVILLE @ DAWSON,1.295319663,103.8097586,103.8097586,141085,DAWSON ROAD,SKYVILLE @ DAWSON,25377.9798,30855.3982,141085
0,533 CHOA CHU KANG STREET 51 DBS LIMBANG SHOPPING CENTRE SINGAPORE 680533,533,DBS LIMBANG SHOPPING CENTRE,1.3920738869999998,103.7430996,103.7430996,680533,CHOA CHU KANG STREET 51,DBS LIMBANG SHOPPING CENTRE,17959.8064,41554.16541,680533
1,533 CHOA CHU KANG STREET 51 DBS NTUC LIMBANG SHOPPING CENTRE SINGAPORE 680533,533,DBS NTUC LIMBANG SHOPPING CENTRE,1.3920738869999998,103.7430996,103.7430996,680533,CHOA CHU KANG STREET 51,DBS NTUC LIMBANG SHOPPING CENTRE,17959.8064,41554.16541,680533
2,533 CHOA CHU KANG STREET 51 OCBC LIMBANG SHOPPING CENTRE - FAIRPRICE SINGAPORE 680533,533,OCBC LIMBANG SHOPPING CENTRE - FAIRPRICE,1.392059532,103.74315490000001,103.74315490000001,680533,CHOA CHU KANG STREET 51,OCBC LIMBANG SHOPPING CENTRE - FAIRPRICE,17965.95797,41552.57791,680533
3,533 CHOA CHU KANG STREET 51 CHERIE HEARTS HOLDINGS PTE. LTD. SINGAPORE 680533,533,CHERIE HEARTS HOLDINGS PTE. LTD.,1.392073879,103.7430996,103.7430996,680533,CHOA CHU KANG STREET 51,CHERIE HEARTS HOLDINGS PTE. LTD.,17959.8067,41554.16459,680533
4,533 CHOA CHU KANG STREET 51 LIMBANG SHOPPING CENTRE SINGAPORE 680533,533,LIMBANG SHOPPING CENTRE,1.3920738869999998,103.7430996,103.7430996,680533,CHOA CHU KANG STREET 51,LIMBANG SHOPPING CENTRE,17959.8064,41554.16541,680533
5,533 CHOA CHU KANG STREET 51 OCBC LIMBANG SHOPPING CENTRE SINGAPORE 680533,533,OCBC LIMBANG SHOPPING CENTRE,1.3920738869999998,103.7430996,103.7430996,680533,CHOA CHU KANG STREET 51,OCBC LIMBANG SHOPPING CENTRE,17959.8064,41554.16541,680533
0,1 GEYLANG SERAI SRI GEYLANG SERAI SINGAPORE 402001,1,SRI GEYLANG SERAI,1.3167363490000001,103.89822790000001,103.89822790000001,402001,GEYLANG SERAI,SRI GEYLANG SERAI,35223.777219999996,33223.62687,402001
1,1 GEYLANG SERAI UOB GEYLANG SERAI MARKET SINGAPORE 402001,1,UOB GEYLANG SERAI MARKET,1.3167363490000001,103.89822790000001,103.89822790000001,402001,GEYLANG SERAI,UOB GEYLANG SERAI MARKET,35223.77719,33223.6269,402001
2,1 GEYLANG SERAI DBS GEYLANG SERAI MARKET AND FOOD CENTRE SINGAPORE 402001,1,DBS GEYLANG SERAI MARKET AND FOOD CENTRE,1.316678856,103.8981027,103.8981027,402001,GEYLANG SERAI,DBS GEYLANG SERAI MARKET AND FOOD CENTRE,35209.84057,33217.2692,402001
3,1 GEYLANG SERAI GEYLANG SERAI MARKET SINGAPORE 402001,1,GEYLANG SERAI MARKET,1.31672515,103.89797740000002,103.89797740000002,402001,GEYLANG SERAI,GEYLANG SERAI MARKET,35195.90192,33222.387819999996,402001
0,50 WOODLANDS INDUSTRIAL PARK E4 WOODLANDS LODGE ONE SINGAPORE 757388,50,WOODLANDS LODGE ONE,1.450108248,103.7945553,103.7945553,757388,WOODLANDS INDUSTRIAL PARK E4,WOODLANDS LODGE ONE,23686.2616,47971.15739,757388
0,23 KAKI BUKIT ROAD 3 THE LEO SINGAPORE 415812,23,THE LEO,1.33724723,103.9038529,103.9038529,415812,KAKI BUKIT ROAD 3,THE LEO,35849.718389999995,35491.63362,415812
0,587 BUKIT TIMAH ROAD CORONATION SHOPPING PLAZA SINGAPORE 269707,587,CORONATION SHOPPING PLAZA,1.323675505,103.8102344,103.8102344,269707,BUKIT TIMAH ROAD,CORONATION SHOPPING PLAZA,25430.9607,33990.84108,269707
1,587 BUKIT TIMAH ROAD HSBC BUKIT TIMAH BRANCH SINGAPORE 269707,587,HSBC BUKIT TIMAH BRANCH,1.323824765,103.81001640000001,103.81001640000001,269707,BUKIT TIMAH ROAD,HSBC BUKIT TIMAH BRANCH,25406.70318,34007.345760000004,269707
2,587 BUKIT TIMAH ROAD DBS NTUC CORONATION SHOPPING PLAZA SINGAPORE 269707,587,DBS NTUC CORONATION SHOPPING PLAZA,1.3238337,103.810002,103.810002,269707,BUKIT TIMAH ROAD,DBS NTUC CORONATION SHOPPING PLAZA,25405.102000000003,34008.3337,269707
3,587 BUKIT TIMAH ROAD OCBC BUKIT TIMAH RD - FAIRPRICE SINGAPORE 269707,587,OCBC BUKIT TIMAH RD - FAIRPRICE,1.3238337,103.810002,103.810002,269707,BUKIT TIMAH ROAD,OCBC BUKIT TIMAH RD - FAIRPRICE,25405.102000000003,34008.3337,269707
0,90 HOUGANG AVENUE 10 CHENG SAN PUBLIC LIBRARY SINGAPORE 538766,90,CHENG SAN PUBLIC LIBRARY,1.372533156,103.8938835,103.8938835,538766,HOUGANG AVENUE 10,CHENG SAN PUBLIC LIBRARY,34740.131610000004,39393.34386,538766
1,90 HOUGANG AVENUE 10 HOUGANG MALL SINGAPORE 538766,90,HOUGANG MALL,1.3724367830000002,103.89372390000001,103.89372390000001,538766,HOUGANG AVENUE 10,HOUGANG MALL,34722.37003,39382.6869,538766
2,90 HOUGANG AVENUE 10 HOUGANG CENTRAL POST OFFICE SINGAPORE 538766,90,HOUGANG CENTRAL POST OFFICE,1.372651672,103.8937463,103.8937463,538766,HOUGANG AVENUE 10,HOUGANG CENTRAL POST OFFICE,34724.869589999995,39406.44829,538766
3,90 HOUGANG AVENUE 10 DBS HOUGANG MALL SINGAPORE 538766,90,DBS HOUGANG MALL,1.372483087,103.8937881,103.8937881,538766,HOUGANG AVENUE 10,DBS HOUGANG MALL,34729.5239,39387.80721,538766
4,90 HOUGANG AVENUE 10 UOB HOUGANG MALL SINGAPORE 538766,90,UOB HOUGANG MALL,1.372483087,103.8937881,103.8937881,538766,HOUGANG AVENUE 10,UOB HOUGANG MALL,34729.5239,39387.80721,538766
5,90 HOUGANG AVENUE 10 DBS NTUC HOUGANG MALL SINGAPORE 538766,90,DBS NTUC HOUGANG MALL,1.372483087,103.8937881,103.8937881,538766,HOUGANG AVENUE 10,DBS NTUC HOUGANG MALL,34729.5239,39387.80721,538766
6,90 HOUGANG AVENUE 10 OCBC HOUGANG MALL BRANCH SINGAPORE 538766,90,OCBC HOUGANG MALL BRANCH,1.372483087,103.8937881,103.8937881,538766,HOUGANG AVENUE 10,OCBC HOUGANG MALL BRANCH,34729.5239,39387.80721,538766
7,90 HOUGANG AVENUE 10 SUNFLOWER PRESCHOOL @ HOUGANG (PTE. LTD.) SINGAPORE 538766,90,SUNFLOWER PRESCHOOL @ HOUGANG (PTE. LTD.),1.372311864,103.89366159999999,103.89366159999999,538766,HOUGANG AVENUE 10,SUNFLOWER PRESCHOOL @ HOUGANG (PTE. LTD.),34715.4429,39368.873889999995,538766
0,11 UPPER BOON KENG ROAD BOON KENG VILLE SINGAPORE 380011,11,BOON KENG VILLE,1.31423937,103.870914,103.870914,380011,UPPER BOON KENG ROAD,BOON KENG VILLE,32184.013339999998,32947.46127,380011
0,49 ADMIRALTY ROAD WEST DBS COCHRANE LODGE II SINGAPORE 757444,49,DBS COCHRANE LODGE II,1.4606586719999999,103.81917469999999,103.81917469999999,757444,ADMIRALTY ROAD WEST,DBS COCHRANE LODGE II,26426.0226,49137.73839,757444
1,49 ADMIRALTY ROAD WEST COCHRANE LODGE II SINGAPORE 757444,49,COCHRANE LODGE II,1.460617069,103.8187869,103.8187869,757444,ADMIRALTY ROAD WEST,COCHRANE LODGE II,26382.85957,49133.13847,757444
0,16 ENGGOR STREET ALTEZ SINGAPORE 079717,16,ALTEZ,1.274617941,103.8443196,103.8443196,079717,ENGGOR STREET,ALTEZ,29224.32188,28566.29912,079717
1,16 ENGGOR STREET ICON VILLAGE SINGAPORE 079717,16,ICON VILLAGE,1.274709698,103.84432,103.84432,079717,ENGGOR STREET,ICON VILLAGE,29224.36691,28576.4451,079717
0,2 TUAS SOUTH STREET 2 SPRINTECS INDUSTRIAL BUILDING SINGAPORE 637895,2,SPRINTECS INDUSTRIAL BUILDING,1.308100979,103.63154820000001,103.63154820000001,637895,TUAS SOUTH STREET 2,SPRINTECS INDUSTRIAL BUILDING,5544.796598,32269.580810000003,637895
0,36A DUNEARN ROAD CHANCERY COURT SINGAPORE 309426,36A,CHANCERY COURT,1.3161774179999999,103.837815,103.837815,309426,DUNEARN ROAD,CHANCERY COURT,28500.40508,33161.7296,309426
0,823 TAMPINES STREET 81 SINGAPORE 520823,823,NIL,1.348744945,103.9340247,103.9340247,520823,TAMPINES STREET 81,823 TAMPINES STREET 81 SINGAPORE 520823,39207.47665,36763.11125,520823
1,823 TAMPINES STREET 81 OCBC TAMPINES STREET 81 - PRIME SUPERMARKET SINGAPORE 520823,823,OCBC TAMPINES STREET 81 - PRIME SUPERMARKET,1.348732845,103.9340102,103.9340102,520823,TAMPINES STREET 81,OCBC TAMPINES STREET 81 - PRIME SUPERMARKET,39205.86479,36761.7732,520823
2,823 TAMPINES STREET 81 VICTORIA MONTESSORI SCHOOLHOUSE PTE. LTD. SINGAPORE 520823,823,VICTORIA MONTESSORI SCHOOLHOUSE PTE. LTD.,1.348732841,103.9340102,103.9340102,520823,TAMPINES STREET 81,VICTORIA MONTESSORI SCHOOLHOUSE PTE. LTD.,39205.86569,36761.772710000005,520823
0,28 DOVER CRESCENT DOVER GARDENS SINGAPORE 130028,28,DOVER GARDENS,1.304763568,103.78169720000001,103.78169720000001,130028,DOVER CRESCENT,DOVER GARDENS,22255.013469999998,31899.703269999998,130028
1,28 DOVER CRESCENT OCBC DOVER CRESCENT - FAIRPRICE SINGAPORE 130028,28,OCBC DOVER CRESCENT - FAIRPRICE,1.304460927,103.7817797,103.7817797,130028,DOVER CRESCENT,OCBC DOVER CRESCENT - FAIRPRICE,22264.194,31866.238589999997,130028
2,28 DOVER CRESCENT DBS NTUC DOVER CRESCENT SINGAPORE 130028,28,DBS NTUC DOVER CRESCENT,1.304460927,103.7817797,103.7817797,130028,DOVER CRESCENT,DBS NTUC DOVER CRESCENT,22264.194,31866.238589999997,130028
0,205 HOUGANG STREET 21 OCBC HEARTLAND MALL SINGAPORE 530205,205,OCBC HEARTLAND MALL,1.359544509,103.8851691,103.8851691,530205,HOUGANG STREET 21,OCBC HEARTLAND MALL,33770.3571,37957.102,530205
1,205 HOUGANG STREET 21 JUNIOR CHAMPS @ KOVAN PTE. LTD. SINGAPORE 530205,205,JUNIOR CHAMPS @ KOVAN PTE. LTD.,1.3594966480000001,103.88507990000001,103.88507990000001,530205,HOUGANG STREET 21,JUNIOR CHAMPS @ KOVAN PTE. LTD.,33760.435710000005,37951.809610000004,530205
2,205 HOUGANG STREET 21 CITIBANK HEARTLAND MALL SINGAPORE 530205,205,CITIBANK HEARTLAND MALL,1.3595417730000001,103.88516740000001,103.88516740000001,530205,HOUGANG STREET 21,CITIBANK HEARTLAND MALL,33770.1682,37956.7995,530205
3,205 HOUGANG STREET 21 DBS HEARTLAND MALL BRANCH SINGAPORE 530205,205,DBS HEARTLAND MALL BRANCH,1.359544509,103.8851691,103.8851691,530205,HOUGANG STREET 21,DBS HEARTLAND MALL BRANCH,33770.3571,37957.102,530205
4,205 HOUGANG STREET 21 HEARTLAND MALL-KOVAN SINGAPORE 530205,205,HEARTLAND MALL-KOVAN,1.359544509,103.8851691,103.8851691,530205,HOUGANG STREET 21,HEARTLAND MALL-KOVAN,33770.3571,37957.102,530205
5,205 HOUGANG STREET 21 UOB HEARTLAND MALL SINGAPORE 530205,205,UOB HEARTLAND MALL,1.359544509,103.8851691,103.8851691,530205,HOUGANG STREET 21,UOB HEARTLAND MALL,33770.3571,37957.102,530205
0,18 TECK WHYE LANE TECK WHYE HEIGHTS III SINGAPORE 680018,18,TECK WHYE HEIGHTS III,1.3782976880000002,103.7540714,103.7540714,680018,TECK WHYE LANE,TECK WHYE HEIGHTS III,19180.77676,40030.817930000005,680018
0,845 YISHUN STREET 81 KAHTIB CENTRAL SINGAPORE 760845,845,KAHTIB CENTRAL,1.416018805,103.83500079999999,103.83500079999999,760845,YISHUN STREET 81,KAHTIB CENTRAL,28187.20352,44201.681339999996,760845
1,845 YISHUN STREET 81 DBS YISHUN STREET 81 SINGAPORE 760845,845,DBS YISHUN STREET 81,1.416079404,103.8350192,103.8350192,760845,YISHUN STREET 81,DBS YISHUN STREET 81,28189.253810000002,44208.38209,760845
2,845 YISHUN STREET 81 NEE SOON TOWN COUNCIL (NEE SOON SOUTH BRANCH) SINGAPORE 760845,845,NEE SOON TOWN COUNCIL (NEE SOON SOUTH BRANCH),1.4159981469999998,103.8350536,103.8350536,760845,YISHUN STREET 81,NEE SOON TOWN COUNCIL (NEE SOON SOUTH BRANCH),28193.079139999998,44199.39713,760845
0,2C YISHUN AVENUE 7 DBS SIMPANG LODGE SINGAPORE 768930,2C,DBS SIMPANG LODGE,1.446126849,103.8381837,103.8381837,768930,YISHUN AVENUE 7,DBS SIMPANG LODGE,28541.40951,47530.877810000005,768930
1,2C YISHUN AVENUE 7 SIMPANG LODGE 2 SINGAPORE 768930,2C,SIMPANG LODGE 2,1.445276507,103.8380609,103.8380609,768930,YISHUN AVENUE 7,SIMPANG LODGE 2,28527.743639999997,47436.85132,768930
0,11 MOHAMED SULTAN ROAD SINGAPORE 239010,11,NIL,1.293841011,103.84161490000001,103.84161490000001,239010,MOHAMED SULTAN ROAD,11 MOHAMED SULTAN ROAD SINGAPORE 239010,28923.30875,30691.8858,239010
0,1 BUKIT BATOK CENTRAL LINK DBS WEST MALL SINGAPORE 658713,1,DBS WEST MALL,1.3503754159999999,103.7491239,103.7491239,658713,BUKIT BATOK CENTRAL LINK,DBS WEST MALL,18630.07259,36943.330910000004,658713
1,1 BUKIT BATOK CENTRAL LINK WEST MALL SINGAPORE 658713,1,WEST MALL,1.3501891659999998,103.749022,103.749022,658713,BUKIT BATOK CENTRAL LINK,WEST MALL,18618.72972,36922.736639999996,658713
2,1 BUKIT BATOK CENTRAL LINK BUKIT BATOK CENTRAL POST OFFICE SINGAPORE 658713,1,BUKIT BATOK CENTRAL POST OFFICE,1.349921529,103.749172,103.749172,658713,BUKIT BATOK CENTRAL LINK,BUKIT BATOK CENTRAL POST OFFICE,18635.42354,36893.14212,658713
3,1 BUKIT BATOK CENTRAL LINK UOB WEST MALL SINGAPORE 658713,1,UOB WEST MALL,1.3502968359999998,103.74906419999999,103.74906419999999,658713,BUKIT BATOK CENTRAL LINK,UOB WEST MALL,18623.428190000002,36934.6421,658713
4,1 BUKIT BATOK CENTRAL LINK BUKIT BATOK PUBLIC LIBRARY SINGAPORE 658713,1,BUKIT BATOK PUBLIC LIBRARY,1.34976579,103.7492062,103.7492062,658713,BUKIT BATOK CENTRAL LINK,BUKIT BATOK PUBLIC LIBRARY,18639.22808,36875.92121,658713
5,1 BUKIT BATOK CENTRAL LINK CATHAY CINEPLEX WEST MALL SINGAPORE 658713,1,CATHAY CINEPLEX WEST MALL,1.3500971480000001,103.74921390000002,103.74921390000002,658713,BUKIT BATOK CENTRAL LINK,CATHAY CINEPLEX WEST MALL,18640.08381,36912.561089999996,658713
0,256 BANGKIT ROAD BUKIT PANJANG NEIGHBOURHOOD CENTRE SINGAPORE 670256,256,BUKIT PANJANG NEIGHBOURHOOD CENTRE,1.379047759,103.773004,103.773004,670256,BANGKIT ROAD,BUKIT PANJANG NEIGHBOURHOOD CENTRE,21287.74699,40113.69527,670256
1,256 BANGKIT ROAD ISMART MONTESSORI SINGAPORE 670256,256,ISMART MONTESSORI,1.3790477559999998,103.7729375,103.7729375,670256,BANGKIT ROAD,ISMART MONTESSORI,21280.34021,40113.69512,670256
2,256 BANGKIT ROAD HOLLAND-BUKIT PANJANG TOWN COUNCIL (BANGKIT OFFICE) SINGAPORE 670256,256,HOLLAND-BUKIT PANJANG TOWN COUNCIL (BANGKIT OFFICE),1.379047757,103.7729375,103.7729375,670256,BANGKIT ROAD,HOLLAND-BUKIT PANJANG TOWN COUNCIL (BANGKIT OFFICE),21280.3393,40113.69527,670256
0,525 ANG MO KIO AVENUE 10 CHENG SAN CENTRE SINGAPORE 560525,525,CHENG SAN CENTRE,1.372626669,103.8539767,103.8539767,560525,ANG MO KIO AVENUE 10,CHENG SAN CENTRE,30299.00098,39403.60861,560525
1,525 ANG MO KIO AVENUE 10 INTEMEDICAL 24 HR CLINIC SINGAPORE 560525,525,INTEMEDICAL 24 HR CLINIC,1.372645696,103.8538907,103.8538907,560525,ANG MO KIO AVENUE 10,INTEMEDICAL 24 HR CLINIC,30289.425769999998,39405.712510000005,560525
0,212 LORONG 8 TOA PAYOH SINGAPORE 310212,212,NIL,1.3406429359999998,103.8543345,103.8543345,310212,LORONG 8 TOA PAYOH,212 LORONG 8 TOA PAYOH SINGAPORE 310212,30338.84524,35867.01077,310212
1,212 LORONG 8 TOA PAYOH OCBC TOA PAYOH LORONG 8 SINGAPORE 310212,212,OCBC TOA PAYOH LORONG 8,1.340652197,103.8543345,103.8543345,310212,LORONG 8 TOA PAYOH,OCBC TOA PAYOH LORONG 8,30338.845210000003,35868.03479,310212
0,266 COMPASSVALE BOW SINGAPORE 540266,266,NIL,1.3818777130000002,103.89703990000001,103.89703990000001,540266,COMPASSVALE BOW,266 COMPASSVALE BOW SINGAPORE 540266,35091.37262,40426.6272,540266
1,266 COMPASSVALE BOW STAR LEARNERS @ SENGKANG PTE. LTD. SINGAPORE 540266,266,STAR LEARNERS @ SENGKANG PTE. LTD.,1.381997031,103.89703109999999,103.89703109999999,540266,COMPASSVALE BOW,STAR LEARNERS @ SENGKANG PTE. LTD.,35090.3952,40439.8208,540266
2,266 COMPASSVALE BOW PASIR RIS-PUNGGOL TOWN COUNCIL (SENGKANG OFFICE) SINGAPORE 540266,266,PASIR RIS-PUNGGOL TOWN COUNCIL (SENGKANG OFFICE),1.381997031,103.89703109999999,103.89703109999999,540266,COMPASSVALE BOW,PASIR RIS-PUNGGOL TOWN COUNCIL (SENGKANG OFFICE),35090.39514,40439.82077,540266
0,255 EAST COAST ROAD CITIBANK ESSO EAST COAST SINGAPORE 428932,255,CITIBANK ESSO EAST COAST,1.3083616470000001,103.9079888,103.9079888,428932,EAST COAST ROAD,CITIBANK ESSO EAST COAST,36310.101689999996,32297.62495,428932
1,255 EAST COAST ROAD ESSO EAST COAST SINGAPORE 428932,255,ESSO EAST COAST,1.308376003,103.908015,103.908015,428932,EAST COAST ROAD,ESSO EAST COAST,36313.01211,32299.21244,428932
0,14 CHUN TIN ROAD SINGAPORE 599601,14,NIL,1.342019632,103.7750642,103.7750642,599601,CHUN TIN ROAD,14 CHUN TIN ROAD SINGAPORE 599601,21516.91846,36019.30594,599601
1,14A CHUN TIN ROAD SINGAPORE 599601,14A,NIL,1.342019632,103.7750642,103.7750642,599601,CHUN TIN ROAD,14A CHUN TIN ROAD SINGAPORE 599601,21516.91849,36019.30591,599601
0,12 MARINA VIEW ASIA SQUARE TOWER 2 SINGAPORE 018961,12,ASIA SQUARE TOWER 2,1.278307296,103.85079520000001,103.85079520000001,018961,MARINA VIEW,ASIA SQUARE TOWER 2,29945.00547,28974.25294,018961
1,12 MARINA VIEW THE WESTIN SINGAPORE SINGAPORE 018961,12,THE WESTIN SINGAPORE,1.278363046,103.8509574,103.8509574,018961,MARINA VIEW,THE WESTIN SINGAPORE,29963.05839,28980.417589999997,018961
0,642 HOUGANG AVENUE 8 HDB-HOUGANG SINGAPORE 530642,642,HDB-HOUGANG,1.371698789,103.8799483,103.8799483,530642,HOUGANG AVENUE 8,HDB-HOUGANG,33189.31908,39301.048969999996,530642
1,642 HOUGANG AVENUE 8 PCF SPARKLETOTS PRESCHOOL@ANG MO KIO-HOUGANG 642 (CC) SINGAPORE 530642,642,PCF SPARKLETOTS PRESCHOOL@ANG MO KIO-HOUGANG 642 (CC),1.371703435,103.87993900000001,103.87993900000001,530642,HOUGANG AVENUE 8,PCF SPARKLETOTS PRESCHOOL@ANG MO KIO-HOUGANG 642 (CC),33188.28249,39301.562710000006,530642
0,6 RAFFLES BOULEVARD DBS MARINA SQUARE SINGAPORE 039594,6,DBS MARINA SQUARE,1.2909816840000001,103.85764759999999,103.85764759999999,039594,RAFFLES BOULEVARD,DBS MARINA SQUARE,30707.6105,30375.7276,039594
1,6 RAFFLES BOULEVARD UOB MARINA SQUARE AUTOLOBBY SINGAPORE 039594,6,UOB MARINA SQUARE AUTOLOBBY,1.2909719990000001,103.8575754,103.8575754,039594,RAFFLES BOULEVARD,UOB MARINA SQUARE AUTOLOBBY,30699.5775,30374.6566,039594
2,6 RAFFLES BOULEVARD OCBC MARINA SQUARE SINGAPORE 039594,6,OCBC MARINA SQUARE,1.291594805,103.8570487,103.8570487,039594,RAFFLES BOULEVARD,OCBC MARINA SQUARE,30640.9601,30443.52271,039594
3,6 RAFFLES BOULEVARD MARINA SQUARE SINGAPORE 039594,6,MARINA SQUARE,1.2910398029999999,103.8576235,103.8576235,039594,RAFFLES BOULEVARD,MARINA SQUARE,30704.932839999998,30382.154010000002,039594
4,6 RAFFLES BOULEVARD MINDCHAMPS PRESCHOOL @ MARINA SQUARE PTE. LTD. SINGAPORE 039594,6,MINDCHAMPS PRESCHOOL @ MARINA SQUARE PTE. LTD.,1.291455268,103.85700729999999,103.85700729999999,039594,RAFFLES BOULEVARD,MINDCHAMPS PRESCHOOL @ MARINA SQUARE PTE. LTD.,30636.355010000003,30428.093389999998,039594
5,"6 RAFFLES BOULEVARD PARKROYAL COLLECTION MARINA BAY, SINGAPORE SINGAPORE 039594",6,"PARKROYAL COLLECTION MARINA BAY, SINGAPORE",1.2914552609999999,103.85700729999999,103.85700729999999,039594,RAFFLES BOULEVARD,"PARKROYAL COLLECTION MARINA BAY, SINGAPORE",30636.354460000002,30428.092660000002,039594
